name;primary_fuel;capacity_mw;Year;Generation_GWh;longitude;latitude
ARRIGHI;Oil;254.0;2013;;2.4033;48.7872
ASTON;Hydro;104.0;2013;;1.677;42.777
AVIGNON;Hydro;126.0;2013;;4.817;43.976
Ablaincourt-Pressoir;Wind;14.35;2013;;2.8247;49.8414
Ablainzevelle;Wind;10.0;2013;;2.741;50.1529
Achiet-le-Grand;Wind;18.0;2013;;2.7791;50.1327
Adriers;Wind;10.0;2013;;0.7899;46.2644
Agde;Solar;1.15956;2013;;3.4846;43.3094
Agenville;Wind;6.0;2013;;2.1079;50.1715
Aghione;Solar;8.53314;2013;;9.4119;42.0986
Aghione 2;Solar;4.0;2013;;9.3986;42.0849
Aghione 3;Solar;12.0;2013;;9.4;42.096
Agos-Vidalos;Hydro;1.6;2013;;-0.0753;43.0398
Aigaliers;Solar;10.9;2013;;4.307;44.068
Aigrefeuille-d'Aunis;Solar;2.18556;2013;;-0.9444;46.1165
Aiguillon;Hydro;1.177;2013;;0.3577;44.3009
Aiguillon;Solar;2.57727;2013;;0.3577;44.3009
Airaines;Wind;12.0;2013;;1.9449;49.972
Airan;Wind;8.0;2013;;-0.146;49.0948
Aire-sur-l'Adour;Solar;2.23527;2013;;-0.2643;43.6991
Aix-en-Provence;Biomass;4.245;2013;;5.3984;43.5361
Aix-en-Provence;Solar;8.36119;2013;;5.3984;43.5361
Aizenay;Solar;1.36627;2013;;-1.6268;46.7385
Ajaccio;Solar;2.20953;2013;;8.7013;41.9349
Albaret-le-Comtal;Hydro;11.68;2013;;3.1442;44.8674
Albas;Hydro;1.8;2013;;1.2406;44.4614
Albi;Solar;6.70448;2013;;2.1475;43.9257
Albias;Solar;2.41;2013;;1.4485;44.0818
Allaire;Wind;8.2;2013;;-2.1774;47.6396
Allanche;Wind;24.0;2013;;2.9535;45.2312
Allemant;Biomass;1.26;2013;;3.4535;49.4624
Allement;Hydro;32.0;2013;;5.422;46.112
Allemond;Hydro;5.3;2013;;6.0178;45.1704
Allery;Wind;4.6;2013;;1.8856;49.9596
Allibaudières;Wind;35.0;2013;;4.1483;48.6071
Allondrelle-la-Malmaison;Wind;10.76;2013;;5.5684;49.5112
Allones 1;Solar;4.5;2013;;0.151;47.945
Allonnes;Wind;52.275;2013;;1.676;48.3407
Alluyes;Wind;12.0;2013;;1.3648;48.229
Ally;Wind;31.5;2013;;3.3009;45.1733
Alès;Solar;3.5015;2013;;4.0888;44.1254
Aléria;Solar;3.66198;2013;;9.496;42.1061
Amanty;Wind;12.3;2013;;5.605;48.5156
Amanvillers;Biomass;1.06;2013;;6.0462;49.1599
Ambarès-et-Lagrave;Solar;1.08202;2013;;-0.5008;44.9438
Ambon;Wind;10.02;2013;;-2.5395;47.5576
Ambonville;Wind;10.0;2013;;5.0106;48.3139
Ambricourt;Wind;4.0;2013;;2.1709;50.4662
Ambrières-les-Vallées;Hydro;1.4;2013;;-0.6245;48.4228
Amelécourt;Wind;12.0;2013;;6.4881;48.8406
Amiens;Biomass;2.83;2013;;2.2907;49.9003
Anetz;Solar;1.05656;2013;;-1.0942;47.3811
Angers;Solar;1.11625;2013;;-0.5561;47.4766
Anglet;Solar;2.57113;2013;;-1.5157;43.4912
Angoulême;Solar;1.06144;2013;;0.145;45.6476
Anost;Hydro;1.9;2013;;4.0922;47.0767
Anoux;Wind;10.25;2013;;5.8648;49.2733
Ansauvillers;Wind;11.5;2013;;2.3874;49.567
Anse-Bertrand;Wind;3.025;2013;;-61.4621;16.4653
Antibes;Biomass;11.44;2013;;7.1054;43.5876
Antoigné;Wind;8.0;2013;;-0.1322;47.0785
Appietto;Solar;4.74928;2013;;8.7342;42.0034
Apprieu;Solar;10.2;2013;;5.485;45.378
Apremont;Solar;1.29408;2013;;-1.749;46.7576
Aragnouet;Hydro;10.255;2013;;0.1782;42.7845
Arbéost;Hydro;2.0;2013;;-0.2738;42.9795
Arcambal;Hydro;2.4;2013;;1.5482;44.4548
Arconcey;Wind;12.0;2013;;4.4614;47.216
Ardeche ULM;Solar;12.0;2013;;4.369;44.545
Ardin;Wind;9.0;2013;;-0.555;46.4813
Ardouval;Wind;12.0;2013;;1.2723;49.7414
Arette;Hydro;1.228;2013;;-0.7361;43.0403
Arfons;Wind;22.0;2013;;2.1895;43.4241
Argancy;Hydro;4.1;2013;;6.2102;49.1984
Argentat;Hydro;47.5;2013;;1.954;45.104
Argenteuil;Biomass;10.3;2013;;2.2406;48.9518
Argentiere-La Bessee;Hydro;38.0;2013;;6.548;44.783
Argentine;Hydro;6.286;2013;;6.3328;45.4894
Arles;Solar;9.07405;2013;;4.6617;43.5468
Arlos;Hydro;5.3;2013;;0.6955;42.8744
Arpajon-sur-Cère;Biomass;4.41;2013;;2.4647;44.8759
Arpajon-sur-Cère;Solar;11.27645;2013;;2.4647;44.8759
Arques;Biomass;8.9;2013;;2.3196;50.7409
Arras-sur-Rhône;Solar;4.24212;2013;;4.8038;45.1433
Arreau;Hydro;10.495;2013;;0.3356;42.9143
Arsac;Solar;48.23768;2013;;-0.7447;44.9837
Artemare;Hydro;4.543;2013;;5.6901;45.8699
Artemps;Wind;10.12;2013;;3.1974;49.7615
Artouste;Hydro;88.0;2013;;-0.411;42.887
Arudy;Hydro;1.148;2013;;-0.4746;43.1005
Arvillard;Hydro;8.5;2013;;6.1709;45.4095
Assac;Wind;20.0;2013;;2.4342;43.9786
Assigny;Wind;12.0;2013;;1.287;49.9828
Aste-Béon;Hydro;1.12;2013;;-0.3973;43.0303
Aubagne;Solar;2.5022;2013;;5.5633;43.2936
Aubas;Hydro;1.126;2013;;1.1985;45.0792
Aubenas;Solar;1.3489;2013;;4.3957;44.6103
Aubergenville;Solar;10.68047;2013;;1.8494;48.9629
Aubigny;Wind;10.5;2013;;-0.2155;48.914
Aubusson;Solar;1.54832;2013;;2.1665;45.9509
Auch;Biomass;1.067;2013;;0.5751;43.6533
Audrieu;Wind;9.2;2013;;-0.6043;49.2046
Aumelas;Wind;36.0;2013;;3.6133;43.5319
Aumont-Aubrac;Solar;1.51505;2013;;3.2818;44.7238
Aurel;Solar;1.3771;2013;;5.3972;44.1381
Auriac-Lagast;Solar;1.53859;2013;;2.5959;44.144
Auribeau-sur-Siagne;Hydro;2.4;2013;;6.9118;43.6121
Aurillac;Solar;4.51723;2013;;2.4418;44.9245
Aussac-Vadalle;Wind;8.0;2013;;0.2157;45.8219
Aussillon;Solar;1.39935;2013;;2.3555;43.4947
Auterive;Hydro;2.273;2013;;1.4775;43.3594
Autremencourt;Wind;14.5;2013;;3.7939;49.7049
Auzat;Hydro;3.2;2013;;1.4432;42.7019
Auzerette;Hydro;29.0;2013;;2.646;45.365
Availles-Limouzine;Solar;1.29016;2013;;0.6473;46.1337
Avant-lès-Marcilly;Wind;10.0;2013;;3.5599;48.4324
Avesnes-en-Bray;Wind;12.0;2013;;1.6756;49.473
Avignon;Solar;11.74147;2013;;4.8413;43.9353
Avignonet-Lauragais;Wind;12.6;2013;;1.7729;43.3771
Avignonet-Lauragais;Solar;4.77224;2013;;1.7729;43.3771
Avon-les-Roches;Solar;10.80126;2013;;0.4597;47.1827
Avrieux;Hydro;11.6;2013;;6.7466;45.1776
Avène;Hydro;1.3;2013;;3.1047;43.7488
Ayssènes;Wind;12.0;2013;;2.7661;44.0922
BAIX LOGIS NEUF 1;Hydro;140.0;2013;;4.787;44.676
BATHIE;Hydro;575.0;2013;;6.445;45.645
BEAUCHASTEL;Hydro;198.0;2013;;4.811;44.824
BELLEVILLE;Nuclear;2620.0;2013;;2.875;47.5103
BLAYAIS;Nuclear;3640.0;2013;;-0.6932;45.256
BLENOD 5;Gas;427.0;2013;;6.0849;48.8681
BORT;Hydro;235.0;2013;;2.4978;45.413
BOUCHAIN 7;Gas;575.0;2013;;3.3156;50.2987
BOURG les VALENCE;Hydro;180.0;2013;;4.839;45.011
BRENNILIS;Oil;304.0;2013;;-3.8706;48.3567
BROMMAT;Hydro;406.0;2013;;2.684;44.768
BUGEY;Nuclear;3580.0;2013;;5.2706;45.7973
Badecon-le-Pin;Hydro;8.0;2013;;1.6014;46.5326
Bagnères-de-Bigorre;Hydro;2.13;2013;;0.1329;42.9745
Baie-Mahault;Solar;16.98945;2013;;-61.5922;16.2516
Baigts-de-Béarn;Hydro;7.905;2013;;-0.8463;43.5244
Bailleul-sur-Thérain;Biomass;2.478;2013;;2.231;49.3852
Bais;Wind;2.3;2013;;-0.357;48.2525
Baissey;Wind;12.0;2013;;5.2494;47.7486
Balazé;Wind;10.3;2013;;-1.1828;48.1781
Bambiderstroff;Wind;12.0;2013;;6.597;49.1011
Banca;Hydro;3.78;2013;;-1.3716;43.1001
Bancairon;Hydro;50.0;2013;;7.137;44.003
Bar;Hydro;8.0;2013;;1.8153;45.3429
Bar-sur-Aube;Biomass;1.5;2013;;4.7152;48.234
Barbaste;Solar;12.42661;2013;;0.2447;44.1588
Barby;Wind;10.0;2013;;4.3157;49.5251
Barraux;Hydro;1.2;2013;;5.9806;45.4357
Barre;Wind;17.03;2013;;2.8156;43.7433
Basse-Terre;Solar;1.25858;2013;;-61.7288;16.0004
Bassens;Solar;13.5;2013;;-0.524;44.909
Bassu;Wind;11.9;2013;;4.6931;48.8343
Bastelicaccia;Solar;4.48242;2013;;8.8369;41.9357
Batilly;Solar;10.39129;2013;;5.9696;49.1765
Baudignécourt;Wind;12.0;2013;;5.4588;48.5653
Baudreville;Wind;11.5;2013;;-1.6244;49.3086
Bayonne;Biomass;3.567;2013;;-1.4662;43.4923
Bazoches-les-Gallerandes;Wind;12.0;2013;;2.0514;48.1625
Beaucaire;Wind;11.5;2013;;4.5938;43.7797
Beaucaire;Solar;3.0839;2013;;4.5938;43.7797
Beaucens;Hydro;3.014;2013;;0.0232;42.9519
Beauchamps;Wind;16.0;2013;;1.5241;50.0186
Beaudignies;Wind;8.0;2013;;3.5855;50.2293
Beaufou;Wind;12.0;2013;;-1.5247;46.8189
Beaumont;Hydro;44.0;2013;;5.753;43.735
Beaumont-de-Lomagne;Solar;2.34397;2013;;1.0102;43.8772
Beaurevoir;Wind;18.0;2013;;3.3295;49.9967
Beausemblant;Wind;12.0;2013;;4.84;45.2123
Beausite;Wind;12.0;2013;;5.2126;48.9673
Beauval;Wind;7.5;2013;;2.3287;50.1082
Beauvilliers;Wind;11.5;2013;;1.6548;48.3004
Beauvoir;Hydro;39.0;2013;;5.319;45.121
Bellac;Solar;9.0;2013;;1.0383;46.0975
Bellegarde;Solar;6.75421;2013;;4.4959;43.7515
Belloc-Saint-Clamens;Solar;1.0357;2013;;0.4372;43.4573
Belvesol 4+5;Solar;11.0;2013;;4.374;44.102
Belvézet;Solar;20.12174;2013;;4.3556;44.0908
Benagues;Hydro;2.49;2013;;1.6098;43.0775
Benet;Biomass;2.126;2013;;-0.6137;46.3692
Benet;Wind;22.0;2013;;-0.6137;46.3692
Benet;Solar;1.45682;2013;;-0.6137;46.3692
Benoîtville;Solar;2.54737;2013;;-1.7763;49.5287
Berdoues;Solar;1.6426;2013;;0.3999;43.472
Bergerac;Hydro;1.4;2013;;0.4864;44.8542
Bernay-Saint-Martin;Wind;12.0;2013;;-0.6259;46.0663
Bertignolles;Wind;6.2;2013;;4.5125;48.1367
Besançon;Solar;1.65554;2013;;6.0193;47.2551
Bessan;Solar;8.12373;2013;;3.4159;43.3574
Besse-sur-Issole;Solar;13.9;2013;;6.155;43.311
Bessens;Solar;6.0;2013;;1.289;43.885
Besset;Solar;3.00144;2013;;1.8467;43.0723
Bessières;Hydro;4.6;2013;;1.5859;43.797
Bessède-de-Sault;Hydro;12.4;2013;;2.1372;42.7854
Bessèges;Solar;1.75148;2013;;4.1067;44.2902
Beuveille;Wind;8.0;2013;;5.6758;49.4359
Beuvraignes;Wind;10.0;2013;;2.7757;49.6388
Beuzec-Cap-Sizun;Wind;1.5;2013;;-4.5071;48.0717
Beynat;Solar;1.78912;2013;;1.7293;45.1312
Beyrède-Jumet;Hydro;9.5;2013;;0.338;42.9554
Biesles;Wind;12.0;2013;;5.2862;48.1029
Bignan;Wind;2.4;2013;;-2.7592;47.8773
Bilot;Solar;8.3;2013;;-0.925;44.192
Bimont;Biomass;1.0;2013;;1.9089;50.5409
Binas;Wind;11.9;2013;;1.4655;47.9065
Blanquefort;Solar;6.50908;2013;;-0.613;44.9234
Blaringhem;Biomass;3.193;2013;;2.4088;50.69
Blauvac;Solar;2.63036;2013;;5.2444;44.0371
Blavozy;Solar;4.00894;2013;;3.9716;45.0624
Bligny-le-Sec;Wind;8.0;2013;;4.7403;47.448
Boissières;Solar;10.0202;2013;;4.2302;43.7707
Boisville-la-Saint-Père;Wind;9.2;2013;;1.7002;48.3314
Bollène;Wind;7.5;2013;;4.7523;44.288
Bollène;Solar;8.28191;2013;;4.7523;44.288
Bonifacio;Solar;5.02432;2013;;9.1857;41.4355
Bonnac;Hydro;8.0;2013;;1.5878;43.1723
Bonnat;Solar;5.72123;2013;;1.9137;46.323
Bonnemain;Solar;2.11596;2013;;-1.7617;48.4713
Bonnet;Wind;24.0;2013;;5.41;48.5335
Bonneuil-Matours;Hydro;1.16;2013;;0.5662;46.6795
Bonneuil-Matours;Solar;1.06809;2013;;0.5662;46.6795
Bonneuil-les-Eaux;Wind;12.0;2013;;2.2435;49.6805
Bonnevaux;Hydro;2.4;2013;;6.6664;46.2948
Bonnières;Wind;19.95;2013;;2.2685;50.237
Bonvillers;Wind;11.5;2013;;2.3517;49.5854
Boos;Solar;8.46907;2013;;-0.9925;43.8928
Bordeaux;Biomass;1.253;2013;;-0.5736;44.8579
Bordeaux;Solar;14.48465;2013;;-0.5736;44.8579
Borgo;Solar;2.46147;2013;;9.4575;42.5741
Boubers-sur-Canche;Wind;8.35;2013;;2.2368;50.2909
Bougainville;Wind;22.0;2013;;2.0463;49.8646
Bouillancourt-en-Séry;Wind;9.0;2013;;1.6297;49.9602
Bouillante;Geothermal;4.5;2013;;-61.769;16.1272
Bouillargues;Solar;2.79078;2013;;4.4349;43.8019
Bouin;Wind;19.5;2013;;-2.0045;46.9811
Boulay-Moselle;Wind;30.5;2013;;6.5191;49.1803
Bouloc;Solar;10.3181;2013;;1.4181;43.7956
Bouluc de Fabre;Solar;12.0;2013;;-1.033;44.412
Bourbriac;Wind;10.0;2013;;-3.1996;48.4661
Bourg-de-Sirod;Hydro;5.277;2013;;5.9553;46.7304
Bourg-et-Comin;Hydro;2.52;2013;;3.6594;49.4027
Bourgbarré;Solar;2.74268;2013;;-1.6222;47.9887
Bourges;Solar;1.62153;2013;;2.4049;47.0747
Bourgneuf-en-Mauges;Solar;3.67395;2013;;-0.8592;47.3087
Bourgneuf-en-Retz;Wind;12.0;2013;;-1.9261;47.0379
Bourgoin-Jallieu;Biomass;14.6;2013;;5.2738;45.6027
Bourogne;Biomass;8.862;2013;;6.9062;47.5647
Bourthes;Wind;20.7;2013;;1.9343;50.6125
Bousbach;Wind;8.0;2013;;6.9463;49.145
Boussac;Solar;1.21546;2013;;2.3771;44.2959
Bout-du-Pont-de-Larn;Solar;1.80056;2013;;2.4292;43.5017
Boutavent;Wind;2.4;2013;;1.7525;49.6384
Bouvante;Hydro;9.8;2013;;5.3043;44.9354
Boves;Biomass;1.903;2013;;2.3826;49.8414
Bovée-sur-Barboure;Wind;12.0;2013;;5.5094;48.6371
Bozel;Hydro;9.5;2013;;6.651;45.4623
Bozouls;Solar;3.31605;2013;;2.7086;44.4676
Boé;Solar;5.48997;2013;;0.6463;44.1702
Brach;Solar;11.6;2013;;-0.943;45.048
Brachy;Wind;12.0;2013;;0.9491;49.8161
Brailly-Cornehotte;Wind;11.5;2013;;1.9579;50.2242
Braize 1;Solar;11.3;2013;;2.641;46.685
Braize 2;Solar;7.1;2013;;2.629;46.677
Bram;Solar;2.53042;2013;;2.1107;43.2512
Bras-Panon;Solar;1.73315;2013;;55.6196;-21.023
Brassac;Hydro;4.1;2013;;2.5118;43.612
Brassemonte;Solar;12.0;2013;;-0.9231;44.9113
Bregnier-Cordon;Hydro;70.0;2013;;5.605;45.654
Brem-sur-Mer;Wind;4.25;2013;;-1.8116;46.6118
Brens-Virigin;Hydro;90.0;2013;;5.698;45.725
Bressols;Solar;1.31155;2013;;1.3163;43.9543
Bressuire;Wind;15.65;2013;;-0.4796;46.8545
Bressuire;Solar;1.35798;2013;;-0.4796;46.8545
Breteuil;Wind;12.0;2013;;2.2921;49.634
Breuvannes-en-Bassigny;Solar;2.41787;2013;;5.6091;48.0857
Briançon;Hydro;10.875;2013;;6.649;44.8996
Brides-les-Bains;Hydro;1.0;2013;;6.5694;45.4541
Briec;Solar;1.50312;2013;;-4.0204;48.0938
Brignoles;Solar;7.7983;2013;;6.0766;43.3993
Brillanne I & II;Hydro;30.0;2013;;5.925;43.921
Brion;Solar;1.1074;2013;;-0.1438;47.4394
Brissy-Hamégicourt;Wind;6.0;2013;;3.4004;49.7429
Brive-la-Gaillarde;Solar;1.70945;2013;;1.519;45.1434
Brognon;Solar;2.18806;2013;;5.1683;47.4109
Broquiès;Wind;1.7;2013;;2.7069;44.0179
Brousse-le-Château;Hydro;2.3;2013;;2.6383;44.0062
Bruniquel;Hydro;1.061;2013;;1.66;44.0521
Brusque;Wind;15.6;2013;;2.9482;43.7645
Bujaleuf;Hydro;12.8;2013;;1.6312;45.7924
Bussière-Saint-Georges;Wind;17.0;2013;;2.1546;46.4018
Buzet-sur-Baïse;Solar;2.39869;2013;;0.3014;44.2536
Buzy;Hydro;9.8;2013;;-0.4466;43.1411
Béconnais;Solar;11.1;2013;;-0.936;44.179
Bédarieux;Solar;8.11368;2013;;3.1664;43.6127
Bénac;Biomass;1.67;2013;;0.0292;43.1526
Bétheniville;Solar;5.3238;2013;;4.3637;49.2925
Béziers;Solar;18.39573;2013;;3.2308;43.3476
CADEROUSSE;Hydro;156.0;2013;;4.724;44.096
CATTENOM;Nuclear;5200.0;2013;;6.2169;49.416
CHASTANG;Hydro;293.0;2013;;2.01;45.151
CHEYLAS;Hydro;485.0;2013;;6.0021;45.3846
CHINON;Nuclear;3620.0;2013;;0.1656;47.2254
CHOOZ;Nuclear;3000.0;2013;;4.7894;50.09
CIVAUX;Nuclear;2990.0;2013;;0.6548;46.4563
COCHE;Hydro;320.0;2013;;6.535;45.482
COMBE D'AVRIEUX;Hydro;123.0;2013;;6.712;45.215
COMBIGOLFE;Gas;425.0;2013;;4.8676;43.4072
CORDEMAIS;Oil;1370.0;2013;;-1.8767;47.2754
CORDEMAIS 4;Coal;1160.0;2013;;-1.8779;47.2756
COUESQUE;Hydro;119.0;2013;;2.585;44.696
CRUAS;Nuclear;3660.0;2013;;4.7546;44.6325
CURBANS;Hydro;139.0;2013;;6.0616;44.4476
Cabasse;Solar;12.0952;2013;;6.2324;43.427
Cabrespine;Hydro;1.11;2013;;2.4714;43.3763
Cabrespine;Wind;10.4;2013;;2.4714;43.3763
Cagnac-les-Mines;Solar;10.0;2013;;2.128;43.987
Caissargues;Solar;1.48317;2013;;4.3955;43.7921
Caix;Wind;12.0;2013;;2.6453;49.8105
Cajarc;Hydro;8.5;2013;;1.8384;44.4939
Calais;Biomass;1.043;2013;;1.8759;50.9501
Calce;Biomass;22.485;2013;;2.7564;42.748
Calenzana;Wind;6.0;2013;;8.8041;42.4783
Calenzana;Solar;2.41418;2013;;8.8041;42.4783
Callengeville;Wind;24.5;2013;;1.5219;49.8242
Callian;Solar;7.65871;2013;;6.757;43.6129
Calmont;Solar;12.40834;2013;;1.6265;43.2844
Camarès;Solar;1.10583;2013;;2.885;43.8188
Cambernon;Wind;9.2;2013;;-1.3806;49.0869
Cambon-et-Salvergues;Wind;29.9;2013;;2.8782;43.6536
Cambrai LFYG 1;Solar;9.9;2013;;3.267;50.125
Campan;Hydro;9.91;2013;;0.2164;42.9617
Campbon;Wind;12.0;2013;;-1.967;47.416
Campigny;Wind;10.0;2013;;0.5617;49.3183
Camplong;Wind;2.7;2013;;3.1118;43.6889
Campénéac;Wind;12.0;2013;;-2.2778;47.9624
Canadel;Solar;10.4;2013;;6.477;43.165
Cancon;Solar;1.24605;2013;;0.628;44.5473
Candas;Wind;10.0;2013;;2.2811;50.0992
Canet;Wind;11.5;2013;;2.8311;43.2264
Cannes;Solar;1.23791;2013;;7.0029;43.5528
Cap Découverte;Solar;19.7;2013;;2.135;44.015
Cap Découverte 4;Solar;5.0;2013;;2.135;44.015
Capdenac;Hydro;5.3;2013;;2.066;44.5849
Capesterre-Belle-Eau;Solar;1.27675;2013;;-61.6119;16.0551
Capesterre-de-Marie-Galante;Solar;2.1148;2013;;-61.2297;15.9202
Carcassonne;Solar;4.6742;2013;;2.3438;43.2094
Carcen-Ponson;Solar;8.36035;2013;;-0.8189;43.8718
Cargiaca;Hydro;3.49;2013;;9.0412;41.7322
Carmaux;Solar;4.5;2013;;2.131;44.0234
Carpentras;Solar;2.55333;2013;;5.0613;44.0592
Carros;Solar;1.96535;2013;;7.1841;43.7849
Cast;Wind;10.0;2013;;-4.1185;48.1489
Castanet-le-Haut;Wind;13.8;2013;;2.9543;43.6735
Casteljaloux;Solar;4.72798;2013;;0.0844;44.3116
Castellane;Hydro;1.3;2013;;6.4904;43.845
Castelnau-Lassouts;Hydro;42.0;2013;;2.874;44.505
Castelnau-Pégayrols;Wind;30.81;2013;;2.9008;44.1659
Castelnau-d'Estrétefonds;Solar;13.60385;2013;;1.3621;43.7942
Castelnau-le-Lez;Solar;1.46684;2013;;3.9124;43.6378
Castelnaudary;Solar;2.48707;2013;;1.9603;43.3231
Castet;Hydro;1.62;2013;;-0.3726;43.0546
Castets;Solar;25.05259;2013;;-1.145;43.8743
Castifao;Solar;2.7394;2013;;9.1193;42.526
Castillon;Hydro;68.0;2013;;6.538;43.878
Castillon-de-Saint-Martory;Hydro;1.9;2013;;0.851;43.1371
Castillon-en-Couserans;Hydro;13.29;2013;;1.0552;42.9166
Castirla;Hydro;54.5;2013;;9.134;42.38
Castres;Solar;3.15121;2013;;2.2382;43.6156
Castres;Hydro;1.315;2013;;2.2382;43.6156
Caudebronde;Wind;4.0;2013;;2.3031;43.388
Caudos 3;Solar;12.0;2013;;-0.979;44.539
Caulières;Wind;17.5;2013;;1.8994;49.7864
Caurel;Wind;4.25;2013;;-3.0396;48.2173
Caussade;Solar;2.62577;2013;;1.5439;44.157
Caussade;Hydro;2.218;2013;;1.5439;44.157
Causse-de-la-Selle;Hydro;3.0;2013;;3.6295;43.7932
Cavaillon;Solar;8.76409;2013;;5.0356;43.8506
Cayenne;Solar;2.67186;2013;;-52.5194;5.0311
Celles-sur-Belle;Wind;9.4;2013;;-0.218;46.2404
Cenon;Biomass;4.268;2013;;-0.5215;44.8544
Cerisières;Wind;8.0;2013;;5.0777;48.3086
Cernay;Solar;6.13497;2013;;7.1793;47.7948
Cernon;Wind;28.9;2013;;4.3626;48.8462
Cestas;Solar;301.36417;2013;;-0.815;44.7242
Chagny;Biomass;1.165;2013;;4.7747;46.8989
Chaillac;Solar;4.70039;2013;;1.2916;46.4259
Challans;Solar;1.19364;2013;;-1.8397;46.8356
Chalmoux;Solar;10.0;2013;;3.86;46.616
Chambonchard;Wind;12.0;2013;;2.5411;46.161
Chambonchard;Solar;1.08146;2013;;2.5411;46.161
Chambéry;Solar;1.29659;2013;;5.9088;45.5837
Chambéry;Biomass;10.336;2013;;5.9088;45.5837
Champagné-les-Marais;Solar;1.18709;2013;;-1.1337;46.3739
Champdeniers-Saint-Denis;Wind;9.0;2013;;-0.3827;46.4799
Champfleury;Wind;36.0;2013;;4.0391;48.6299
Champlin;Wind;27.5;2013;;4.2979;49.832
Champsanglard;Hydro;6.3;2013;;1.8891;46.2801
Champteussé-sur-Baconne;Biomass;1.902;2013;;-0.6537;47.67
Champéon;Wind;4.6;2013;;-0.5127;48.3561
Chanceaux-près-Loches;Biomass;1.021;2013;;0.9398;47.1413
Changé;Biomass;9.0;2013;;-0.7997;48.1077
Chantonnay;Solar;1.30214;2013;;-1.0443;46.6691
Chantrigné;Wind;9.2;2013;;-0.5606;48.4126
Chapelle-Vallon;Wind;24.0;2013;;4.0424;48.4344
Charleval;Solar;6.45692;2013;;5.2453;43.7211
Charly-sur-Marne;Wind;22.0;2013;;3.2921;48.9872
Charmes;Hydro;1.5009;2013;;6.3186;48.3849
Charmont-en-Beauce;Wind;30.0;2013;;2.1458;48.2232
Charmont-sous-Barbuise;Wind;24.0;2013;;4.1812;48.4155
Charritte-de-Bas;Hydro;9.4;2013;;-0.897;43.2951
Charroux;Solar;1.36303;2013;;0.4155;46.1399
Chartrettes;Hydro;3.0;2013;;2.7131;48.4943
Chasseneuil-sur-Bonnieure;Solar;1.02277;2013;;0.4415;45.8244
Chastel-Nouvel;Wind;12.0;2013;;3.4925;44.5707
Chatuzange-le-Goubet;Biomass;3.915;2013;;5.0967;45.0113
Chatuzange-le-Goubet;Solar;1.02274;2013;;5.0967;45.0113
Chauché;Solar;1.10474;2013;;-1.2713;46.8283
Chaudanne;Hydro;24.3;2013;;6.544;43.848
Chaudeyrac;Wind;1.7;2013;;3.7513;44.6418
Chaumont;Biomass;4.2;2013;;5.1399;48.0976
Chautagne;Hydro;90.0;2013;;5.811;45.879
Chauvé;Wind;12.0;2013;;-2.0118;47.1586
Chelers;Wind;18.0;2013;;2.4878;50.3818
Chemillé-Melay;Solar;1.62249;2013;;-0.7242;47.213
Chermisey;Wind;8.0;2013;;5.5678;48.4149
Chervey;Wind;12.5;2013;;4.4899;48.1346
Chevalet;Solar;5.5;2013;;5.733;44.512
Chevenoz;Hydro;1.77;2013;;6.6413;46.3327
Chicheboville;Wind;12.0;2013;;-0.2198;49.1052
Cholet;Solar;1.47341;2013;;-0.8771;47.0458
Château Solar III;Solar;8.7;2013;;5.841;43.541
Château-Arnoux-Saint-Auban;Solar;9.8;2013;;5.9996;44.0586
Château-Chinon (Campagne);Hydro;6.26;2013;;3.9403;47.0563
Château-Guibert;Hydro;1.6;2013;;-1.2548;46.5743
Château-Porcien;Wind;10.0;2013;;4.2472;49.5342
Châteaulin;Wind;10.0;2013;;-4.0733;48.2033
Châteaurenard;Solar;7.0;2013;;4.866;43.902
Châteaurenard;Solar;1.31564;2013;;4.8399;43.8819
Châtel-Montagne;Hydro;8.8;2013;;3.7168;46.1002
Châtellerault;Hydro;2.4;2013;;0.5526;46.8153
Châtellerault;Solar;1.15396;2013;;0.5526;46.8153
Châtelus-le-Marcheix;Hydro;10.236;2013;;1.6256;46.0068
Châtres;Wind;7.5;2013;;3.8369;48.4929
Chépy;Wind;4.4;2013;;1.6426;50.0636
Chéry;Wind;13.9;2013;;2.0261;47.1159
Chézery-Forens;Hydro;1.4;2013;;5.8722;46.2225
Chézy;Biomass;1.2;2013;;3.459;46.6124
Cierp-Gaud;Hydro;11.0;2013;;0.6341;42.9129
Civray;Wind;20.0;2013;;2.1855;46.9733
Cize Bolozon;Hydro;23.0;2013;;5.465;46.211
Clairac;Hydro;1.5;2013;;0.3866;44.3711
Clamanges;Wind;10.02;2013;;4.0833;48.8298
Clamart;Solar;1.02378;2013;;2.2541;48.7968
Clamecy;Wind;12.336;2013;;3.511;47.4613
Clermont-Ferrand;Solar;4.90851;2013;;3.1156;45.7859
Clermont-Ferrand;Biomass;18.62;2013;;3.1156;45.7859
Clermont-l'Hérault;Solar;1.50592;2013;;3.4128;43.634
Clisson;Solar;1.24823;2013;;-1.2715;47.097
Clitourps;Wind;3.3;2013;;-1.3719;49.6513
Cléon;Solar;4.926;2013;;1.0397;49.3158
Clérac;Biomass;1.2;2013;;-0.2346;45.171
Cocquerel;Wind;12.0;2013;;1.9604;50.0554
Coiselet;Hydro;41.0;2013;;5.592;46.294
Collorec;Wind;8.4;2013;;-3.7716;48.2915
Colmar;Solar;1.58379;2013;;7.3849;48.1101
Colomiers;Solar;3.65295;2013;;1.3273;43.6116
Combrée;Biomass;1.063;2013;;-1.02;47.7068
Concarneau;Biomass;2.895;2013;;-3.9075;47.8962
Condom;Solar;10.35593;2013;;0.3741;43.9717
Conilhac-Corbières;Wind;16.7;2013;;2.7164;43.1849
Conilhac-de-la-Montagne;Wind;17.0;2013;;2.2053;42.9788
Conteville;Wind;4.0;2013;;-0.2442;49.0892
Contreuve;Wind;12.0;2013;;4.6155;49.3619
Coole;Wind;12.0;2013;;4.3915;48.7395
Coquelles;Wind;2.4;2013;;1.8143;50.9291
Corbières;Solar;1.32836;2013;;5.7455;43.761
Corcoué-sur-Logne;Solar;2.4899;2013;;-1.5998;46.9532
Coren;Wind;15.0;2013;;3.1086;45.0873
Cormainville;Wind;60.0;2013;;1.616;48.1207
Cormont;Wind;9.2;2013;;1.7442;50.5646
Corneilla-del-Vercol;Solar;1.84322;2013;;2.9518;42.6226
Cornimont;Hydro;4.615;2013;;6.8651;47.9686
Corpe;Wind;11.05;2013;;-1.1702;46.5054
Corroy;Wind;17.0;2013;;3.9576;48.7025
Corte;Solar;1.35635;2013;;9.0836;42.2704
Coti-Chiavari;Solar;2.26924;2013;;8.7525;41.7691
Cotignac;Solar;3.89115;2013;;6.1444;43.5235
Couffé;Wind;10.19;2013;;-1.2926;47.3885
Coulon;Solar;1.44682;2013;;-0.585;46.3374
Coulonges-Thouarsais;Wind;12.3;2013;;-0.3329;46.9234
Coulours;Wind;10.0;2013;;3.5941;48.162
Coume;Wind;10.0;2013;;6.583;49.197
Coupelle-Vieille;Wind;20.0;2013;;2.0772;50.5328
Coupéville;Wind;9.3;2013;;4.6234;48.9043
Courcelles-sur-Aire;Wind;20.0;2013;;5.2336;48.9405
Courdemanges;Wind;6.9;2013;;4.5086;48.6796
Courgis;Wind;12.0;2013;;3.7441;47.777
Cournon-d'Auvergne;Solar;1.72445;2013;;3.1862;45.7435
Courtisols;Solar;1.19304;2013;;4.5191;48.9774
Couteuges;Solar;10.38721;2013;;3.4967;45.1847
Couëron;Biomass;6.3;2013;;-1.7304;47.2305
Coyecques;Wind;8.2;2013;;2.1851;50.601
Crampagna;Hydro;1.18;2013;;1.589;43.0287
Crennes-sur-Fraubée;Wind;10.0;2013;;-0.2658;48.3824
Creutzwald;Wind;10.0;2013;;6.6815;49.2092
Criel-sur-Mer;Wind;14.82;2013;;1.3238;50.0191
Criquiers;Wind;6.6;2013;;1.7018;49.6761
Crissey;Hydro;1.3;2013;;5.479;47.0516
Croix-de-Metz;Gas;413.0;2013;;5.8917;48.675
Croixrault;Wind;2.3;2013;;1.9867;49.794
Cros-de-Géorand;Wind;10.26;2013;;4.1276;44.7994
Cruas;Wind;6.0;2013;;4.7562;44.6565
Cruas;Solar;3.90128;2013;;4.7562;44.6565
Crucey-Villages;Solar;24.02204;2013;;1.1064;48.6683
Cruguel;Wind;12.0;2013;;-2.5908;47.8779
Cruscades;Wind;11.5;2013;;2.8164;43.2
Crèvecoeur-le-Grand;Wind;12.0;2013;;2.0851;49.6128
Crédin;Wind;20.4;2013;;-2.7652;48.039
Crépy-en-Valois;Biomass;3.35;2013;;2.8967;49.2361
Créquy;Wind;20.25;2013;;2.0376;50.5028
Cubelles;Hydro;1.72;2013;;3.564;44.9969
Cuges-les-Pins;Solar;7.72742;2013;;5.7103;43.2809
Cuincy;Solar;11.91035;2013;;3.0345;50.3739
Cuq;Wind;12.0;2013;;2.0865;43.6531
Curbans;Solar;26.36344;2013;;6.0368;44.411
Curières;Solar;1.13499;2013;;2.8924;44.6495
Cusset;Biomass;1.065;2013;;3.4831;46.1372
Cusset-Jonage;Hydro;85.0;2013;;5.025;45.79
Cuxac-Cabardès;Wind;12.0;2013;;2.279;43.3905
Cuxac-Cabardès;Hydro;1.725;2013;;2.279;43.3905
DAMPIERRE;Nuclear;3560.0;2013;;2.5185;47.7321
DIRINON;Oil;170.0;2013;;-4.26;48.39
DK6;Gas;796.0;2013;;2.3255;51.0482
DONZERE MONDRAGON;Hydro;348.0;2013;;4.7423;44.3037
Damazan;Solar;1.90716;2013;;0.2751;44.2889
Damery;Wind;11.4;2013;;2.7362;49.7306
Dannes;Biomass;1.56;2013;;1.6061;50.5928
Dargies;Wind;12.0;2013;;1.9814;49.6988
Daumazan-sur-Arize;Solar;10.45652;2013;;1.3038;43.1448
Dehlingen;Wind;12.0;2013;;7.1811;48.9856
Delouze-Rosières;Wind;24.0;2013;;5.5315;48.5658
Derval;Wind;17.0;2013;;-1.6776;47.6577
Destry;Wind;12.0;2013;;6.5856;48.9456
Digoin;Solar;2.35214;2013;;4.0253;46.4891
Dijon;Solar;1.08662;2013;;5.0374;47.3231
Dijon;Biomass;9.02;2013;;5.0374;47.3231
Dinéault;Wind;1.2;2013;;-4.1674;48.2166
Dio-et-Valquières;Wind;11.97;2013;;3.2212;43.6688
Diou;Solar;12.05204;2013;;3.7361;46.5226
Dirinon;Wind;1.7;2013;;-4.2693;48.4011
Distré;Solar;2.21506;2013;;-0.1236;47.2232
Dohem;Wind;8.0;2013;;2.1694;50.6277
Domart-en-Ponthieu;Wind;10.0;2013;;2.1237;50.0758
Domène;Hydro;3.2;2013;;5.8371;45.2044
Domérat;Solar;5.0;2013;;2.571;46.351
Doncourt-lès-Longuyon;Wind;6.0;2013;;5.7144;49.4429
Donzère;Biomass;1.9;2013;;4.7088;44.4318
Douchy-les-Mines;Biomass;6.37;2013;;3.3894;50.2994
Doudelainville;Wind;10.0;2013;;1.7638;50.0011
Draguignan;Solar;1.6402;2013;;6.4548;43.5359
Drambon;Biomass;1.415;2013;;5.3791;47.3344
Droupt-Saint-Basle;Wind;12.3;2013;;3.9571;48.4802
Droupt-Sainte-Marie;Wind;12.3;2013;;3.9386;48.5017
Ducey;Hydro;1.6;2013;;-1.2793;48.6126
Ducos;Solar;8.75322;2013;;-60.9675;14.5779
Dunkerque;Biomass;7.15;2013;;2.337;51.0306
Duppigheim;Solar;1.02351;2013;;7.596;48.534
Durance;Solar;11.78586;2013;;0.1634;44.1574
EMILE HUCHET;Gas;826.0;2013;;6.7018;49.1526
EMILE HUCHET;Coal;995.0;2013;;6.697;49.151
Eaucourt-sur-Somme;Wind;10.0;2013;;1.8882;50.0684
Eauze;Solar;1.27649;2013;;0.1055;43.8609
Ebersheim;Solar;1.09706;2013;;7.4981;48.3027
Eget;Hydro;37.3;2013;;0.565;42.955
Eguzon;Hydro;72.0;2013;;1.613;46.455
Elne;Solar;2.45584;2013;;2.9719;42.6003
Embrun;Solar;1.04187;2013;;6.4754;44.5805
En Fayole;Solar;6.7;2013;;5.7534;46.5313
Enchanet;Hydro;35.0;2013;;2.194;45.082
Ennezat;Solar;1.5437;2013;;3.2161;45.8954
Entraigues-sur-la-Sorgue;Biomass;1.67;2013;;4.9328;43.9956
Entraygues-sur-Truyère;Hydro;12.1;2013;;2.5787;44.6548
Erbray;Wind;11.5;2013;;-1.3217;47.6693
Ervillers;Wind;6.0;2013;;2.8258;50.1646
Escamps;Wind;4.1;2013;;3.4734;47.7173
Eschau;Hydro;1.125;2013;;7.7308;48.4832
Esclavolles-Lurey;Wind;14.0;2013;;3.6499;48.5549
Esnouveaux;Wind;10.0;2013;;5.3485;48.1324
Esparron-de-Verdon;Solar;16.2137;2013;;5.9885;43.7433
Espeyrac;Hydro;1.95;2013;;2.5196;44.6192
Espinasses;Solar;4.48481;2013;;6.2324;44.4924
Esquay-sur-Seulles;Biomass;1.432;2013;;-0.6229;49.2717
Esquennoy;Wind;12.0;2013;;2.2698;49.6549
Estézargues;Solar;12.03533;2013;;4.6363;43.9543
Euvy;Wind;27.5;2013;;3.9935;48.7251
Eygliers;Hydro;25.0;2013;;6.65;44.672
Eymeux;Solar;1.0884;2013;;5.1827;45.067
Eymoutiers;Hydro;4.28;2013;;1.7405;45.7111
FESSENHEIM;Hydro;175.0;2013;;7.571;47.915
FESSENHEIM;Nuclear;1760.0;2013;;7.5631;47.9032
FLAMANVILLE;Nuclear;2660.0;2013;;-1.8823;49.5366
Fabrègues;Solar;2.26811;2013;;3.7714;43.5339
Falleron;Wind;11.5;2013;;-1.7007;46.8626
Familly;Wind;10.2;2013;;0.3469;48.9607
Fargues-sur-Ourbise;Solar;5.04464;2013;;0.1573;44.23
Fauquembergues;Wind;31.35;2013;;2.1113;50.5824
FAUX;Solar;11.5;2013;;0.623;44.782
Faux-la-Montagne;Hydro;2.3;2013;;1.9351;45.7431
Fel;Biomass;1.095;2013;;0.1124;48.7931
Feldkirch;Solar;2.02255;2013;;7.2729;47.8565
Feldkirch A;Solar;5.0;2013;;7.274;47.84
Felletin;Hydro;2.1;2013;;2.1825;45.8905
Felletin;Biomass;3.49;2013;;2.1825;45.8905
Ferme Du Plateau;Solar;10.0;2013;;-0.304;49.196
Ferrassières;Solar;3.274;2013;;5.4905;44.1394
Ferrière-et-Lafolie;Wind;12.0;2013;;5.0753;48.399
Feux;Biomass;1.067;2013;;2.8663;47.2295
Fiefs;Wind;12.8;2013;;2.321;50.4997
Fiennes;Wind;11.5;2013;;1.83;50.8239
Fienvillers;Wind;8.35;2013;;2.2351;50.1183
Fierville-Bray;Wind;20.0;2013;;-0.179;49.0649
Figanières;Solar;12.26303;2013;;6.4982;43.5675
Fillières;Wind;10.0;2013;;5.8423;49.4117
Fillé;Solar;4.5;2013;;0.133;47.915
Filstroff;Solar;1.73249;2013;;6.5305;49.325
Fitou;Wind;22.1;2013;;2.9662;42.8959
Flammerécourt;Wind;10.0;2013;;5.0437;48.3597
Flassans-sur-Issole;Solar;1.41573;2013;;6.2211;43.3766
Flavin;Solar;1.2025;2013;;2.6217;44.2881
Flavin;Wind;10.0;2013;;2.6217;44.2881
Florensac;Solar;1.019;2013;;3.4638;43.3861
Foix;Hydro;6.24;2013;;1.6102;42.9654
Folelli;Solar;12.0;2013;;9.531;42.457
Fonroche;Solar;4.0;2013;;0.5694;44.1814
Fontaine-Mâcon;Wind;12.3;2013;;3.5073;48.4581
Fontan;Hydro;8.5;2013;;7.5448;44.0215
Fontenay-sur-Mer;Biomass;2.376;2013;;-1.3081;49.4937
Fontenet;Solar;11.98302;2013;;-0.4636;45.9054
Fontenilles;Solar;7.16417;2013;;1.1969;43.5552
Fontienne;Solar;10.4;2013;;5.778;44.005
Fontpédrouse;Hydro;10.0;2013;;2.1949;42.463
Fontsalive;Solar;4.8;2013;;3.4365;46.0816
Fort-de-France;Biomass;6.6;2013;;-61.0692;14.6409
Fort-de-France;Solar;7.10742;2013;;-61.0692;14.6409
Fortel-en-Artois;Wind;11.4;2013;;2.2296;50.2575
Fos;Hydro;10.6;2013;;0.7473;42.8607
Fos-sur-Mer;Solar;1.73715;2013;;4.9042;43.4557
Fos-sur-Mer;Wind;14.0;2013;;4.9042;43.4557
Fos-sur-Mer;Biomass;40.462;2013;;4.8995;43.4534
Fougerolles-du-Plessis;Solar;3.23085;2013;;-0.9463;48.483
Fougères;Solar;2.29573;2013;;-1.1949;48.3526
Fouju;Biomass;1.672;2013;;2.7654;48.588
Foulcrey;Wind;13.2;2013;;6.8677;48.6398
Fourchambault;Biomass;3.26;2013;;3.0902;47.0169
Fraisse-sur-Agout;Wind;23.0;2013;;2.7972;43.5926
Framerville-Rainecourt;Wind;12.0;2013;;2.7201;49.8633
Francastel;Wind;12.0;2013;;2.1485;49.5899
Francheville;Wind;14.7;2013;;4.5395;48.8791
Freigné;Wind;9.2;2013;;-1.1061;47.5364
Fresnes-Tilloloy;Wind;10.0;2013;;1.7605;49.9828
Fresnes-en-Saulnois;Wind;11.9;2013;;6.4393;48.839
Fresnoy-Folny;Biomass;2.001;2013;;1.4359;49.8873
Fresnoy-le-Grand;Wind;13.8;2013;;3.4196;49.9537
Fressenneville;Wind;23.92;2013;;1.5667;50.0609
Freycenet-la-Tour;Wind;12.0;2013;;4.0707;44.9355
Freyssenet;Wind;10.6;2013;;4.5468;44.689
Froidfond;Wind;6.0;2013;;-1.7552;46.8796
Frontignan;Solar;3.57087;2013;;3.7493;43.4481
Fruges;Wind;43.1;2013;;2.0677;50.5099
Fréjus;Solar;2.10751;2013;;6.7637;43.4719
Frénouville;Wind;12.0;2013;;-0.2483;49.1325
Frévent;Wind;8.0;2013;;2.2933;50.2695
Fumel;Hydro;7.0;2013;;0.9804;44.5079
Fuveau;Solar;5.03936;2013;;5.5534;43.4598
Fère-Champenoise;Solar;1.07943;2013;;4.0161;48.7703
Fécamp;Wind;4.7;2013;;0.3961;49.7526
Féniers;Solar;4.314;2013;;2.1266;45.7445
GENISSIAT;Hydro;420.0;2013;;5.813;46.053
GENNEVILLIERS 1;Gas;203.0;2013;;2.3;48.9333
GERSTHEIM;Hydro;140.5;2013;;7.728;48.404
GOLFECH;Nuclear;2620.0;2013;;0.8443;44.106
GRAND MAISON;Hydro;1690.0;2013;;6.051;45.146
GRAVELINES;Nuclear;5460.0;2013;;2.1332;51.0141
Gaillac;Solar;5.71737;2013;;1.8862;43.9165
Gaillac;Hydro;6.2;2013;;1.8862;43.9165
Gamaches;Wind;11.5;2013;;1.5568;49.9949
Gambsheim;Hydro;1.1;2013;;7.8845;48.6926
Gap;Solar;3.26741;2013;;6.0647;44.5804
Garcelles-Secqueville;Wind;12.0;2013;;-0.2799;49.0965
Gardanne;Solar;10.07774;2013;;5.4803;43.4528
Garein;Solar;6.00188;2013;;-0.6499;44.0489
Gargilesse-Dampierre;Hydro;9.0;2013;;1.6202;46.5061
Garons;Solar;1.86337;2013;;4.4387;43.7716
Garrosse;Solar;8.46082;2013;;-0.9447;44.0071
Gavray;Wind;2.0;2013;;-1.3303;48.9024
Geloux;Solar;7.26595;2013;;-0.6403;43.9804
Gennetines;Solar;12.12215;2013;;3.405;46.63
Gentioux-Pigerolles;Solar;1.09656;2013;;2.0085;45.7848
Ger;Wind;8.2;2013;;-0.8037;48.6717
Germ;Hydro;3.1;2013;;0.4407;42.7767
Germinon;Wind;75.0;2013;;4.1786;48.8867
Ghisonaccia;Solar;1.2234;2013;;9.4225;42.0438
Ghisonaccia;Solar;12.0;2013;;9.445;42.035
Giat;Solar;1.01903;2013;;2.4767;45.7992
Gignac;Hydro;3.2;2013;;3.5736;43.6395
Ginasservis;Solar;11.0874;2013;;5.8372;43.6591
Ginestas;Solar;6.8;2013;;2.894;43.3
Giuncaggio;Hydro;2.1;2013;;9.3824;42.1921
Gogney;Wind;8.8;2013;;6.8693;48.6146
Golinhac;Hydro;45.0;2013;;2.605;44.606
Gommerville;Wind;27.85;2013;;1.8827;48.3788
Gonfreville;Wind;16.31;2013;;-1.4031;49.2312
Gonfreville-l'Orcher;Biomass;1.063;2013;;0.2219;49.4853
Gouchaupre;Wind;11.0;2013;;1.2952;49.9225
Gour Noir (Le);Hydro;40.0;2013;;2.067;45.071
Gourbeyre;Solar;1.30171;2013;;-61.6864;15.994
Gourgançon;Wind;48.0;2013;;4.0369;48.6674
Gournay-Loizé;Wind;12.0;2013;;-0.0487;46.1497
Goutrens;Solar;1.08415;2013;;2.3664;44.4387
Gouzon;Solar;2.59124;2013;;2.2304;46.1868
Grabels;Solar;4.4;2013;;3.762;43.645
Graincourt-lès-Havrincourt;Biomass;1.067;2013;;3.0976;50.1424
Grand-Fougeray;Wind;12.4;2013;;-1.7279;47.7339
Grandrif;Hydro;2.72;2013;;3.8348;45.5205
Grandval;Hydro;74.0;2013;;3.0745;44.9219
Grangent;Hydro;37.0;2013;;4.248;45.467
Granges;Biomass;1.897;2013;;4.7519;46.737
Grasse;Solar;1.29796;2013;;6.932;43.6558
Gratens;Solar;1.48365;2013;;1.123;43.3261
Gratot;Wind;2.0;2013;;-1.4952;49.0686
Graulhet;Solar;6.87749;2013;;2.0012;43.758
Gremirande;Solar;9.1;2013;;0.4347;43.5184
Greneville-en-Beauce;Wind;25.0;2013;;2.1103;48.1892
Grenoble;Solar;1.11183;2013;;5.721;45.1822
Grenoble Air Parc;Solar;5.0;2013;;5.348;45.359
Gruny;Wind;9.2;2013;;2.8171;49.7262
Gréning;Wind;6.9;2013;;6.8413;48.9741
Gréoux-les-Bains;Solar;82.0;2013;;5.822;43.776
Guchen;Hydro;6.5;2013;;0.3213;42.8567
Gueltas;Biomass;1.065;2013;;-2.811;48.0915
Gueltas;Wind;9.3;2013;;-2.811;48.0915
Guern;Wind;8.0;2013;;-3.1022;48.0346
Guerville;Wind;11.5;2013;;1.5259;49.9524
Gueschart;Wind;38.0;2013;;1.9886;50.2388
Gueures;Wind;7.5;2013;;0.9558;49.8425
Guichainville;Biomass;8.75;2013;;1.179;48.9802
Guigneville;Wind;18.0;2013;;2.173;48.2157
Guilberville;Wind;8.0;2013;;-0.9493;48.987
Guindrecourt-sur-Blaise;Wind;8.0;2013;;4.98;48.2978
Guipel;Solar;1.03703;2013;;-1.7236;48.2925
Guitinières;Solar;1.484;2013;;-0.5107;45.4422
Gujan-Mestras;Solar;1.0172;2013;;-1.0842;44.5942
Guégon;Wind;10.0;2013;;-2.5859;47.9251
Guéhenno;Wind;3.6;2013;;-2.6511;47.892
Guénin;Solar;1.19381;2013;;-2.9668;47.9053
Génos;Hydro;1.312;2013;;0.3912;42.7522
Générac;Solar;1.02731;2013;;4.3588;43.7239
Gétigné;Solar;3.92821;2013;;-1.2177;47.0812
Gétigné A;Solar;5.5;2013;;-1.197;47.091
HAVRE 4;Coal;580.0;2013;;0.1491;49.4757
Hambers;Wind;8.2;2013;;-0.4261;48.254
Hangest-en-Santerre;Wind;12.0;2013;;2.602;49.7517
Harcanville;Wind;9.2;2013;;0.7684;49.708
Hargicourt;Wind;16.2;2013;;2.5195;49.7132
Haucourt-Moulaine;Wind;2.2;2013;;5.8074;49.4964
Haut de la Lande;Solar;9.0;2013;;-0.621;44.481
Hautefage;Hydro;25.0;2013;;1.994;45.06
Hauteluce;Hydro;8.5;2013;;6.6156;45.7642
Hautevesnes;Wind;12.3;2013;;3.2351;49.109
Hauteville;Wind;25.0;2013;;3.5236;49.8888
Heliovale;Solar;4.5;2013;;3.2605;43.3428
Hendecourt-lès-Cagnicourt;Wind;12.0;2013;;2.949;50.2148
Herlincourt;Wind;13.8;2013;;2.2917;50.3444
Herly;Wind;12.0;2013;;1.9906;50.5411
Herm;Solar;1.62593;2013;;-1.1252;43.8072
Hermin;Wind;11.5;2013;;2.5529;50.4141
Hersin-Coupigny;Biomass;1.75;2013;;2.6423;50.4451
Hescamps;Wind;6.0;2013;;1.8781;49.7289
Hillion;Hydro;2.7;2013;;-2.6463;48.5028
Hilsenheim;Solar;1.46003;2013;;7.5734;48.297
Hippodrome 1;Solar;12.0;2013;;-0.672;44.081
Hombleux;Wind;18.0;2013;;2.9916;49.7434
Hombourg;Solar;3.13082;2013;;7.491;47.7565
Hospitalet (L');Hydro;93.3;2013;;1.797;42.588
Hostens;Solar;23.31344;2013;;-0.6566;44.4849
Houdelaincourt;Wind;12.0;2013;;5.4565;48.5517
Hourtin;Solar;11.1;2013;;-1.029;45.201
Huclier;Wind;13.8;2013;;2.3547;50.4363
Huiron;Wind;6.9;2013;;4.495;48.6925
Huparlac;Solar;1.57687;2013;;2.7534;44.7109
Hyères;Solar;5.42097;2013;;6.1896;43.102
Héninel;Wind;6.0;2013;;2.8708;50.2333
Hétomesnil;Wind;12.0;2013;;2.0404;49.6316
Hézecques;Wind;18.2;2013;;2.1911;50.5342
Iffendic;Wind;2.2;2013;;-2.0243;48.1139
Igney;Wind;13.2;2013;;6.8196;48.6327
Ille-sur-Têt;Solar;11.19511;2013;;2.6162;42.6772
Illois;Wind;9.0;2013;;1.6461;49.7452
Iron;Wind;24.0;2013;;3.6645;49.9509
Is-en-Bassigny;Wind;12.0;2013;;5.447;48.0345
Isigny-le-Buat;Biomass;1.215;2013;;-1.1828;48.6213
Isles-les-Meldeuses;Biomass;1.9;2013;;3.0133;48.998
Issoire;Solar;1.29353;2013;;3.245;45.5456
Issy-les-Moulineaux;Biomass;55.0;2013;;2.2645;48.8231
Issé;Biomass;2.134;2013;;-1.456;47.6173
Istres;Solar;35.36262;2013;;4.9161;43.5842
Ivergny;Wind;12.0;2013;;2.3794;50.2377
Izernore;Hydro;3.6;2013;;5.5632;46.2184
Jacou;Solar;1.00656;2013;;3.9122;43.6633
Jaillon;Solar;36.00882;2013;;5.9778;48.7837
Janville;Wind;20.1;2013;;1.8895;48.2008
Jouques;Hydro;78.0;2013;;5.656;43.681
Jouy-aux-Arches;Hydro;4.0;2013;;6.0867;49.0644
Jouy-en-Pithiverais;Wind;12.0;2013;;2.1307;48.1498
Juillé;Wind;10.8;2013;;0.126;48.2444
Jurançon;Hydro;1.129;2013;;-0.4069;43.2701
Jussac;Solar;12.54012;2013;;2.418;44.9952
Juvignac;Solar;1.16795;2013;;3.7963;43.6245
KEMBS;Hydro;153.7;2013;;7.52;47.655
Ker Poiré sur Vie;Solar;5.2;2013;;-1.438;46.747
Kergrist;Wind;19.7;2013;;-2.9286;48.1474
Kergrist-Moëlou;Wind;27.3;2013;;-3.333;48.2773
Koungou;Solar;5.25397;2013;;45.1864;-12.747
Kourou;Solar;13.58552;2013;;-52.7663;4.9334
L'Isle-Jourdain;Hydro;5.1;2013;;0.6985;46.2384
L'Isle-en-Dodon;Solar;2.26612;2013;;0.8337;43.3815
L'Isle-sur-la-Sorgue;Solar;2.2588;2013;;5.0559;43.913
L'Étang-Salé;Solar;1.96369;2013;;55.3811;-21.2766
L'Île-d'Olonne;Wind;5.34;2013;;-1.7737;46.5696
LUCY 3;Coal;245.0;2013;;4.351;46.667
La Bastide-Puylaurent;Hydro;3.7;2013;;3.888;44.5658
La Bastide-de-Bousignac;Solar;1.23905;2013;;1.8846;43.0582
La Bastide-du-Salat;Hydro;1.24;2013;;0.9998;43.0609
La Benâte;Wind;12.0;2013;;-0.5576;46.0075
La Bresse;Hydro;4.256;2013;;6.9255;48.0184
La Bridoire;Hydro;7.0;2013;;5.7378;45.5299
La Carrière des Plaines;Solar;8.2;2013;;5.124;43.704
La Cavalerie;Solar;1.06181;2013;;3.1837;44.0117
La Chaize-le-Vicomte;Solar;1.09879;2013;;-1.2919;46.6729
La Chapelle-Gaudin;Wind;12.3;2013;;-0.3859;46.9248
La Chapelle-Laurent;Solar;4.79038;2013;;3.243;45.1831
La Chapelle-Laurent;Wind;6.0;2013;;3.243;45.1831
La Chapelle-Rousselin;Wind;7.5;2013;;-0.8025;47.1949
La Chapelle-sur-Erdre;Solar;1.21898;2013;;-1.5601;47.303
La Chaussée-sur-Marne;Wind;22.25;2013;;4.5435;48.8434
La Ciotat;Solar;2.01092;2013;;5.6122;43.1925
La Combe;Solar;4.5;2013;;5.0992;44.0874
La Crau;Solar;1.23701;2013;;6.093;43.1636
La Découverte;Solar;12.0;2013;;2.265;44.565
La Désirade;Wind;1.65;2013;;-61.053;16.3115
La Fage-Montivernoux;Wind;11.69;2013;;3.1517;44.7471
La Fare-les-Oliviers;Solar;4.91378;2013;;5.2024;43.5547
La Fare-les-Oliviers;Biomass;1.091;2013;;5.2024;43.5547
La Faye;Wind;12.0;2013;;0.1593;46.0194
La Forêt Marcolès;Solar;8.9;2013;;2.393;44.756
La Forêt-sur-Sèvre;Solar;1.38752;2013;;-0.648;46.7594
La Fossette;Solar;6.5;2013;;4.896;43.467
La Gacilly;Wind;12.0;2013;;-2.1562;47.7729
La Garbage B;Solar;11.5;2013;;-0.202;44.09
La Garde;Solar;2.05746;2013;;6.0191;43.1267
La Garnache;Solar;1.47021;2013;;-1.8251;46.8974
La Garnache;Wind;12.0;2013;;-1.8251;46.8974
La Genétouze;Solar;5.26764;2013;;-0.0523;45.2212
La Granes;Solar;11.0;2013;;4.668;43.979
La Grave;Hydro;5.2;2013;;6.2836;45.0601
La Haie-Traversaine;Wind;12.0;2013;;-0.6132;48.3589
La Limouzinière;Wind;12.15;2013;;-1.6412;46.9877
La Llagonne;Hydro;9.07;2013;;2.094;42.5377
La Léchère;Hydro;1.9;2013;;6.4611;45.5275
La Marne;Wind;10.25;2013;;-1.7184;46.9916
La Motte-de-Galaure;Wind;4.0;2013;;4.9007;45.1992
La Mède;Solar;7.6;2013;;5.114;43.395
La Neuville-Bosmont;Wind;12.0;2013;;3.8333;49.7149
La Palme;Solar;4.8766;2013;;2.9948;42.9653
La Palme;Wind;9.2;2013;;2.9948;42.9653
La Pommeraye;Solar;1.14545;2013;;-0.8698;47.3429
La Possession;Solar;3.22811;2013;;55.683;-20.9574
La Prénessaye;Wind;10.0;2013;;-2.6476;48.1859
La Prétière;Hydro;1.65;2013;;6.6096;47.4459
La Redoune;Solar;12.0;2013;;-1.012;45.202
La Roche-de-Rame;Hydro;2.095;2013;;6.617;44.7659
La Roche-des-Arnauds;Solar;1.21921;2013;;5.9599;44.5839
La Roche-sur-Yon;Solar;2.23223;2013;;-1.4079;46.6676
La Roche-sur-Yon;Solar;5.0;2013;;-1.435;46.7
La Rochelle;Solar;2.1538;2013;;-1.175;46.162
La Rochelle-Normande;Solar;1.98698;2013;;-1.4354;48.7632
La Répara-Auriples;Wind;4.8;2013;;4.9943;44.6612
La Salvetat-Peyralès;Solar;1.72735;2013;;2.1966;44.2211
La Salvetat-sur-Agout;Solar;1.00009;2013;;2.6873;43.602
La Selve;Solar;1.38843;2013;;2.5364;44.1057
La Seyne-sur-Mer;Solar;1.68143;2013;;5.8708;43.089
La Souterraine;Wind;8.0;2013;;1.4759;46.2369
La Teronde;Solar;7.1;2013;;4.0279;44.0987
La Teste-de-Buch;Solar;1.24445;2013;;-1.1751;44.5562
La Tour-sur-Orb;Solar;4.05276;2013;;3.151;43.6559
La Tourlandry;Wind;10.0;2013;;-0.699;47.143
La Trinité;Solar;1.07462;2013;;-60.9506;14.7383
La Tronche;Biomass;5.7;2013;;5.744;45.2097
La Tâche;Wind;16.304;2013;;0.3638;45.87
La Verdière;Solar;6.46758;2013;;5.9524;43.6467
La Veuve;Biomass;9.1;2013;;4.3337;49.0371
La Ville-Dieu-du-Temple;Solar;1.13183;2013;;1.2211;44.0429
La Vraie-Croix;Biomass;1.115;2013;;-2.5187;47.6899
Labastide-Rouairoux;Solar;1.01868;2013;;2.6361;43.4835
Labessière-Candeil;Biomass;3.675;2013;;2.0196;43.8005
Labry;Biomass;1.675;2013;;5.8724;49.1832
Lacombe;Wind;8.0;2013;;2.2404;43.4059
Lacourt;Hydro;3.6;2013;;1.1708;42.9332
Lacuje;Solar;9.0;2013;;0.15;44.065
Ladinhac;Solar;1.0015;2013;;2.5093;44.7671
Lafitte-sur-Lot;Solar;7.97865;2013;;0.4367;44.3536
Lafresguimont-Saint-Martin;Wind;12.0;2013;;1.8101;49.8228
Laguiole;Hydro;9.5;2013;;2.8677;44.6943
Laguiole;Solar;2.11392;2013;;2.8677;44.6943
Lagune de Toret;Solar;22.0;2013;;-0.979;44.407
Laissac;Solar;1.8917;2013;;2.8173;44.3651
Laluque;Solar;3.84398;2013;;-0.9863;43.8512
Lamagistere;Solar;5.0;2013;;0.837;44.128
Lamanon;Hydro;1.6;2013;;5.0886;43.7049
Lamballe;Wind;9.2;2013;;-2.4951;48.4687
Lamentin;Solar;1.93806;2013;;-61.6688;16.241
Lamontélarié;Wind;12.0;2013;;2.6084;43.6205
Lanas;Solar;1.0328;2013;;4.384;44.5371
Lanau;Hydro;21.0;2013;;3.003;44.891
Landroff;Wind;16.0;2013;;6.6172;48.9648
Landry;Hydro;4.3;2013;;6.7617;45.5637
Laneuville-au-Rupt;Wind;11.5;2013;;5.5762;48.7072
Lanfains;Wind;7.5;2013;;-2.9117;48.3658
Langelé;Solar;12.0;2013;;-0.951;43.889
Langogne;Hydro;8.0;2013;;3.8338;44.7238
Langoëlan;Wind;2.0;2013;;-3.2335;48.1209
Lannion;Solar;3.09362;2013;;-3.4628;48.7436
Lannoy-Cuillère;Wind;12.0;2013;;1.7361;49.7089
Lanobre;Hydro;11.1;2013;;2.5496;45.4344
Lanouée;Wind;8.0;2013;;-2.5759;47.987
Lanques-sur-Rognon;Wind;10.0;2013;;5.3698;48.0879
Lanrivain;Wind;8.5;2013;;-3.2156;48.3593
Lanrivoaré;Wind;5.3;2013;;-4.6345;48.4659
Lansargues;Solar;1.65026;2013;;4.0828;43.637
Lantosque;Hydro;7.6;2013;;7.3049;43.9706
Lapouyade;Biomass;8.74;2013;;-0.2861;45.1106
Laprugne;Wind;16.08;2013;;3.7623;45.994
Lardy;Hydro;45.0;2013;;2.583;44.662
Largentière;Solar;12.18548;2013;;4.3014;44.5333
Laroquebrou;Hydro;2.8;2013;;2.1934;44.9744
Larrau;Hydro;10.673;2013;;-0.973;43.01
Laruns;Hydro;19.739;2013;;-0.4198;42.8923
Laruscade;Solar;3.6342;2013;;-0.3439;45.1242
Lassay-les-Châteaux;Wind;6.9;2013;;-0.4994;48.4421
Lasse;Biomass;9.19;2013;;0.0063;47.5441
Lathus-Saint-Rémy;Solar;1.22979;2013;;0.9437;46.3208
Latouille-Lentillac;Hydro;2.155;2013;;1.9809;44.8504
Latour-Bas-Elne;Solar;1.33221;2013;;3.0053;42.6048
Lattes;Biomass;1.954;2013;;3.9025;43.5635
Lattes;Solar;1.56172;2013;;3.9025;43.5635
Laucourt;Wind;10.0;2013;;2.7617;49.6722
Laudun-l'Ardoise;Solar;1.8108;2013;;4.6638;44.1028
Lautrec;Solar;1.34368;2013;;2.13;43.7051
Lauwin-Planque;Wind;12.0;2013;;3.0296;50.3928
Lauzach;Wind;10.0;2013;;-2.5561;47.6109
Lauzières;Solar;5.0;2013;;4.2698;43.8656
Lavabreille;Solar;8.0;2013;;4.0814;44.1695
Laval;Hydro;3.96;2013;;5.9815;45.2362
Laval-de-Cère;Hydro;5.1;2013;;1.9359;44.9443
Lavallée;Wind;4.0;2013;;5.3329;48.8081
Lavansol M17;Solar;6.0;2013;;6.0194;44.0097
Lavaur;Biomass;1.021;2013;;1.7946;43.6896
Lavaur;Solar;2.648;2013;;1.7946;43.6896
Lavelanet;Solar;2.83006;2013;;1.8465;42.9334
Lavernose;Solar;4.6;2013;;1.263;43.3718
Lavilledieu;Solar;3.91288;2013;;4.4485;44.5818
Lavours;Hydro;4.95;2013;;5.7724;45.8115
Le Barp;Solar;11.83773;2013;;-0.7468;44.6267
Le Bernard;Wind;12.65;2013;;-1.4401;46.448
Le Bocage;Solar;5.0;2013;;1.9585;43.4138
Le Bosc;Solar;1.10604;2013;;3.3874;43.6959
Le Bosc;Solar;9.1;2013;;3.3531;43.6984
Le Boulou;Solar;8.0331;2013;;2.8316;42.5267
Le Bourg-d'Hem;Hydro;13.7;2013;;1.8404;46.3006
Le Bousquet-d'Orb;Hydro;1.67;2013;;3.1508;43.7033
Le Bétout;Solar;12.0;2013;;-0.911;44.901
Le Cailar;Solar;4.1;2013;;4.2216;43.7074
Le Cannet-des-Maures;Hydro;2.8;2013;;6.3755;43.3739
Le Castellet;Solar;12.18681;2013;;5.7657;43.2275
Le Castellet II;Solar;4.1;2013;;5.7602;43.2592
Le Crès;Solar;1.06237;2013;;3.9367;43.6527
Le Fousseret;Solar;1.03666;2013;;1.0651;43.2863
Le Garric;Solar;9.0;2013;;2.1425;44.0018
Le Gartiou;Solar;8.7;2013;;-1.023;45.201
Le Ham;Wind;6.0;2013;;-0.3542;48.3734
Le Haut-Corlay;Wind;9.0;2013;;-3.0326;48.3407
Le Havre;Solar;11.65028;2013;;0.1403;49.4966
Le Lamentin;Solar;15.02184;2013;;-60.9936;14.6247
Le Landreau;Wind;9.2;2013;;-1.2988;47.2075
Le Langon;Wind;6.23;2013;;-0.947;46.439
Le Lauzet-Ubaye;Solar;2.5;2013;;6.4196;44.4318
Le Loroux-Bottereau;Solar;1.02061;2013;;-1.3318;47.2334
Le Lorrain;Solar;3.95299;2013;;-61.0767;14.8015
Le Mans;Biomass;14.375;2013;;0.2;47.9889
Le Margnès;Wind;15.1;2013;;2.5998;43.6525
Le Marin;Solar;1.18115;2013;;-60.8575;14.4839
Le Meix-Tiercelin;Wind;10.0;2013;;4.4414;48.6397
Le Mesnil-Opac;Wind;2.3;2013;;-1.1147;49.0184
Le Morne-Rouge;Solar;1.25036;2013;;-61.1203;14.769
Le Moule;Solar;9.88531;2013;;-61.3714;16.3205
Le Mouruen;Solar;7.0;2013;;5.7769;43.2815
Le Muy;Solar;1.79318;2013;;6.5769;43.4686
Le Nayrac;Solar;1.57904;2013;;2.6704;44.6056
Le Palais-sur-Vienne;Hydro;2.2;2013;;1.3248;45.8737
Le Passage;Solar;1.84184;2013;;0.5942;44.1936
Le Plessis-Gassot;Biomass;17.6;2013;;2.415;49.0361
Le Poiré-sur-Vie;Solar;1.98756;2013;;-1.505;46.7703
Le Pontet;Solar;3.56292;2013;;4.8654;43.9686
Le Port;Solar;19.97097;2013;;55.3149;-20.9501
Le Portel;Wind;3.0;2013;;1.5754;50.7115
Le Pouzin;Solar;4.15439;2013;;4.7485;44.7519
Le Pouzin;Wind;4.6;2013;;4.7485;44.7519
Le Robert;Solar;4.19509;2013;;-60.9426;14.675
Le Rochereau;Wind;6.68;2013;;0.1409;46.6946
Le Soler;Solar;15.0;2013;;2.784;42.663
Le Souich;Wind;12.0;2013;;2.3615;50.2225
Le Tampon;Solar;6.3448;2013;;55.4963;-21.2876
Le Tech;Hydro;8.7;2013;;2.513;42.4418
Le Teil;Solar;1.04414;2013;;4.6642;44.5429
Le Thor;Solar;1.40459;2013;;4.9931;43.9282
Le Thour;Wind;24.0;2013;;4.0908;49.5455
Le Transloy;Wind;15.0;2013;;2.8924;50.0506
Le Travet;Hydro;1.25;2013;;2.3271;43.8103
Le Tuzan;Solar;5.06688;2013;;-0.5997;44.4495
Le Val-d'Esnoms;Wind;28.0;2013;;5.1976;47.7029
Le Vauclin;Wind;1.1;2013;;-60.8568;14.5435
Le Vigeant;Solar;4.02092;2013;;0.6375;46.2205
Le Vigeant;Biomass;2.8;2013;;0.6375;46.2205
Lectoure;Solar;1.82597;2013;;0.6506;43.9402
Leffincourt;Wind;20.0;2013;;4.5504;49.3812
Legé;Solar;1.29338;2013;;-1.5788;46.9006
Lehaucourt;Wind;20.0;2013;;3.2777;49.9116
Les Abymes;Solar;2.78197;2013;;-61.5017;16.2727
Les Arcs;Solar;1.76117;2013;;6.49;43.4509
Les Brandes;Solar;8.3;2013;;2.6937;46.38
Les Brouzils;Solar;1.14824;2013;;-1.3319;46.8854
Les Cedres;Solar;9.0;2013;;55.3758;-21.2704
Les Cigalettes;Solar;10.0;2013;;5.93;44.053
Les Clérimois;Wind;8.0;2013;;3.4571;48.2292
Les Essarts-le-Vicomte;Wind;12.3;2013;;3.5534;48.6649
Les Fougerêts;Wind;12.0;2013;;-2.1975;47.748
Les Grandes-Chapelles;Wind;36.3;2013;;4.0087;48.4837
Les Herbiers;Solar;3.35788;2013;;-1.0221;46.8667
Les Mées;Solar;95.31534;2013;;6.0168;44.015
Les Mées I;Solar;30.9;2013;;6.009;44.015
Les Mées II;Solar;12.4;2013;;6.027;44.015
Les Mées III;Solar;13.0;2013;;5.993;43.996
Les Nouillers;Wind;10.0;2013;;-0.6572;45.9352
Les Pennes-Mirabeau;Solar;5.5993;2013;;5.3154;43.4032
Les Pennes-Mirabeau;Biomass;3.38;2013;;5.3154;43.4032
Les Rosiers-sur-Loire;Solar;1.43146;2013;;-0.2227;47.3742
Les Salles-du-Gardon;Solar;1.00215;2013;;4.0178;44.1944
Les Sièges;Wind;8.0;2013;;3.5343;48.172
Lescar;Biomass;5.85;2013;;-0.4283;43.3404
Lescure-Jaoul;Hydro;1.2;2013;;2.1472;44.2255
Lesménils;Biomass;1.008;2013;;6.1108;48.9314
Lesterps;Wind;8.0;2013;;0.7922;46.012
Lestrade-et-Thouels;Wind;12.0;2013;;2.6484;44.0542
Levoncourt;Wind;4.0;2013;;5.3459;48.8276
Lewarde;Biomass;3.35;2013;;3.1689;50.3367
Lezay;Solar;2.16003;2013;;-0.0197;46.2657
Lhospitalet;Solar;7.60084;2013;;1.4284;44.3542
Lhuître;Wind;24.0;2013;;4.2739;48.5808
Libourne;Solar;1.15303;2013;;-0.2345;44.9131
Licq-Atherey;Hydro;27.4;2013;;-0.886;43.048
Licq-Athérey;Hydro;15.909;2013;;-0.8787;43.0554
Ligny-Saint-Flochel;Wind;11.5;2013;;2.4234;50.3595
Ligny-sur-Canche;Wind;8.0;2013;;2.2609;50.284
Lihons;Wind;12.0;2013;;2.7555;49.8284
Lihus;Wind;24.0;2013;;2.0387;49.6045
Lille;Solar;1.09629;2013;;3.047;50.6318
Limoges;Solar;1.82917;2013;;1.249;45.8544
Limoges;Biomass;1.5;2013;;1.249;45.8544
Limoux;Hydro;1.16;2013;;2.2393;43.0496
Linghem;Wind;9.2;2013;;2.3727;50.5891
Liniez;Wind;15.0;2013;;1.757;47.014
Lisle-sur-Tarn;Solar;1.32133;2013;;1.7816;43.8977
Lislet;Wind;10.85;2013;;4.0216;49.6766
Litz;Wind;4.0;2013;;2.3232;49.4268
Livet-et-Gavet;Hydro;15.9;2013;;5.9188;45.0905
Livinhac-le-Haut;Hydro;8.1;2013;;2.2161;44.5968
Livron-sur-Drôme;Solar;1.31043;2013;;4.8386;44.7875
Livry-Louvercy;Solar;1.31952;2013;;4.3122;49.1056
Lizeray;Wind;8.0;2013;;1.9034;46.9849
Lodes;Solar;1.01705;2013;;0.6574;43.1658
Lohuec;Wind;9.35;2013;;-3.5264;48.4624
Longeville-sur-Mer;Wind;12.35;2013;;-1.4772;46.4091
Longueville-sur-Aube;Wind;24.8;2013;;3.9133;48.5513
Longué-Jumelles;Solar;1.04235;2013;;-0.1074;47.3985
Lons;Solar;4.51518;2013;;-0.4018;43.3212
Lons-le-Saunier;Biomass;1.0;2013;;5.5582;46.6749
Loon-Plage;Wind;12.0;2013;;2.2229;51.0011
Loriol-sur-Drôme;Solar;2.37495;2013;;4.806;44.7495
Losse;Solar;67.64936;2013;;-0.013;44.0583
Lot;Hydro;28.6;2013;;2.664;44.663
Louchats;Solar;12.0;2013;;-0.596;44.534
Loudenvielle;Hydro;7.7;2013;;0.4323;42.7302
Lourdes;Hydro;1.2;2013;;-0.077;43.1074
Lourdios-Ichère;Hydro;1.105;2013;;-0.6556;43.0418
Louron;Hydro;49.3;2013;;0.41;42.79
Louville-la-Chenard;Wind;36.0;2013;;1.7911;48.3358
Louvilliers-lès-Perche;Solar;12.00559;2013;;1.0666;48.6166
Louzy;Biomass;2.126;2013;;-0.1809;47.0175
Louzy;Solar;8.78178;2013;;-0.1809;47.0175
Luc-la-Primaube;Solar;1.99701;2013;;2.5367;44.3056
Luc-sur-Orbieu;Wind;27.5;2013;;2.8097;43.1746
Lucet;Solar;12.0;2013;;-1.0131;44.2096
Lugo Di Nazza;Hydro;39.0;2013;;9.316;42.091
Lugos;Solar;12.0;2013;;-0.95;44.464
Lunel;Solar;2.44587;2013;;4.136;43.6821
Lunel-Viel;Solar;1.86909;2013;;4.084;43.6829
Lury-sur-Arnon;Solar;1.31091;2013;;2.0643;47.1349
Lusignan;Wind;6.33;2013;;0.1138;46.4368
Lusigny-sur-Barse;Hydro;4.4;2013;;4.2773;48.263
Lussat;Solar;1.56883;2013;;2.3311;46.1864
Luxey;Solar;8.5;2013;;-0.45;44.176
Luz-Saint-Sauveur;Hydro;3.071;2013;;0.0177;42.8322
Luzenac;Hydro;2.06;2013;;1.7426;42.7199
Luçon;Solar;1.23287;2013;;-1.1643;46.4512
Lévigny;Wind;10.0;2013;;4.7074;48.2979
Lézignan-Corbières;Solar;1.65223;2013;;2.7621;43.204
Lüe;Solar;34.7483;2013;;-0.9961;44.2766
MALGOVERT;Hydro;297.0;2013;;6.79;45.618
MARCKOLSHEIM;Hydro;156.2;2013;;7.589;48.154
MAREGES;Hydro;150.0;2013;;2.364;45.392
MARTIGUES PONTEAU;Gas;930.0;2013;;5.0216;43.3585
MONTELIMAR;Hydro;295.0;2013;;4.708;44.499
MONTEYNARD;Hydro;366.0;2013;;5.7726;44.8722
MONTEZIC;Hydro;910.0;2013;;2.641;44.734
MONTPEZAT;Hydro;131.8;2013;;6.0888;43.7514
Machecoul;Solar;7.12448;2013;;-1.8243;46.9908
Maché;Wind;8.0;2013;;-1.6959;46.7712
Macouba;Solar;4.7;2013;;-61.1515;14.8552
Macouria;Solar;5.95617;2013;;-52.5087;4.9822
Magescq;Solar;11.54946;2013;;-1.1995;43.7735
Magnien;Solar;1.13625;2013;;4.4336;47.1085
Magoar;Wind;5.6;2013;;-3.1771;48.4015
Mahalon;Wind;6.0;2013;;-4.4191;48.0271
Maillebois;Solar;24.0446;2013;;1.1497;48.632
Mainvilliers;Biomass;8.7;2013;;1.4458;48.4623
Maisnières;Wind;24.0;2013;;1.6091;50.015
Maisons-en-Champagne;Wind;16.0;2013;;4.4673;48.7366
Maizières;Wind;12.0;2013;;2.4421;50.3216
Malijai;Solar;1.40104;2013;;6.0507;44.0339
Malissard;Solar;1.78491;2013;;4.9588;44.901
Mamoudzou;Solar;6.46794;2013;;45.1939;-12.79
Mana;Solar;1.3184;2013;;-53.6455;4.9917
Mana;Hydro;4.48;2013;;-53.6455;4.9917
Mancioux;Hydro;1.8;2013;;0.9413;43.167
Manduel;Solar;2.24909;2013;;4.4886;43.8053
Mangassaye;Solar;5.1;2013;;55.8058;-21.1642
Manneville-ès-Plains;Wind;13.8;2013;;0.751;49.8582
Manosque;Solar;7.30685;2013;;5.7912;43.8351
Manosque-Voix;Hydro;55.0;2013;;5.863;43.877
Marcellois;Wind;10.8;2013;;4.6167;47.3486
Marcillac;Hydro;30.0;2013;;2.038;45.215
Marcillat-en-Combraille;Solar;1.82814;2013;;2.6343;46.1705
Mareuil-sur-Arnon;Wind;24.0;2013;;2.1633;46.8788
Margueray;Wind;10.0;2013;;-1.1266;48.8997
Marguerittes;Solar;1.98785;2013;;4.4491;43.8611
Marignane;Solar;3.19216;2013;;5.2122;43.4173
Marigny;Hydro;1.1;2013;;5.778;46.6793
Marmande;Solar;1.2046;2013;;0.1723;44.5051
Marmanhac;Solar;12.13773;2013;;2.4783;45.0073
Marquette-lez-Lille;Biomass;1.25;2013;;3.0604;50.6744
Marsangis;Wind;10.0;2013;;3.8527;48.6116
Marsanne;Solar;1.03724;2013;;4.8833;44.6395
Marsanne;Wind;16.0;2013;;4.8833;44.6395
Marson-sur-Barboure;Wind;12.3;2013;;5.4438;48.6353
Martigues;Solar;1.72011;2013;;5.0495;43.38
Massangis;Solar;56.03591;2013;;4.0112;47.6087
Massingy-lès-Vitteaux;Wind;10.8;2013;;4.5908;47.3958
Mathay;Hydro;1.7;2013;;6.7707;47.4421
Matoury;Solar;9.25825;2013;;-52.3436;4.8316
Maubeuge;Solar;11.91246;2013;;3.9628;50.2844
Mauguio;Solar;2.19399;2013;;4.0046;43.5931
Mauléon;Wind;8.0;2013;;-0.7473;46.947
Maure-de-Bretagne;Wind;8.4;2013;;-1.9981;47.8971
Mauron;Wind;10.0;2013;;-2.3048;48.0827
Maxent;Wind;6.0;2013;;-2.0162;47.9783
Mazamet;Hydro;3.317;2013;;2.3893;43.458
Mazaugues;Solar;4.5;2013;;5.9176;43.3602
Mazeray;Wind;12.0;2013;;-0.5604;45.9164
Mazet;Hydro;56.0;2013;;1.803;45.801
Mazoires;Wind;4.8;2013;;3.0477;45.3949
Mazères;Solar;1.29381;2013;;1.6787;43.2309
Maël-Pestivien;Wind;6.0;2013;;-3.2901;48.4038
Mda Mill;Biomass;11.2;2013;;55.47;-21.32
Meilhards;Solar;1.24008;2013;;1.6362;45.547
Melve;Solar;5.0;2013;;5.9923;44.3389
Menaucourt;Wind;12.0;2013;;5.3623;48.656
Menomblet;Solar;1.17687;2013;;-0.7286;46.7301
Mercoeur;Wind;7.5;2013;;3.3036;45.1876
Mercuès;Hydro;1.96;2013;;1.3894;44.4975
Mergey;Wind;12.0;2013;;4.0326;48.3958
Meria;Solar;4.4968;2013;;9.4366;42.92
Merry-Sec;Wind;10.0;2013;;3.4857;47.6588
Mervent;Hydro;1.472;2013;;-0.7483;46.5324
Merville;Solar;1.68956;2013;;2.6364;50.6455
Metz;Hydro;4.0;2013;;6.1959;49.1081
Metz;Solar;1.31472;2013;;6.1959;49.1081
Meyras;Hydro;3.9;2013;;4.2604;44.6766
Meyreuil;Solar;1.13085;2013;;5.5002;43.4909
Meyzieu;Solar;1.01436;2013;;5.0063;45.7774
Migé;Wind;10.25;2013;;3.5329;47.676
Millac;Hydro;14.1;2013;;0.7055;46.1954
Millencourt-en-Ponthieu;Solar;1.48293;2013;;1.913;50.1497
Mios;Solar;19.285;2013;;-0.8959;44.6177
Miradoux;Solar;8.01482;2013;;0.7585;43.9948
Miramas;Solar;1.26438;2013;;5.0143;43.5842
Miramont-de-Comminges;Hydro;4.7;2013;;0.7558;43.0912
Mirande;Solar;15.65343;2013;;0.4105;43.5186
Mirandol-Bourgnounac;Hydro;4.4;2013;;2.1715;44.1468
Mirepeix;Hydro;1.4;2013;;-0.251;43.1932
Miribel-Lanchâtre;Hydro;1.2;2013;;5.6106;44.9731
Mison;Solar;2.55458;2013;;5.8651;44.2628
Mizoën;Hydro;5.38;2013;;6.1821;45.0431
Mohon;Wind;12.0;2013;;-2.4945;48.0634
Moisy;Wind;23.65;2013;;1.3185;47.9183
Molain;Wind;9.0;2013;;3.5327;50.0331
Molinons;Wind;10.0;2013;;3.5436;48.2212
Momerstroff;Wind;11.5;2013;;6.5331;49.1552
Moncale;Solar;2.3127;2013;;8.8196;42.5033
Monchel-sur-Canche;Wind;8.35;2013;;2.2191;50.3032
Monchy-Breton;Wind;9.2;2013;;2.4354;50.3983
Mont-de-Marsan;Solar;1.60674;2013;;-0.4904;43.8994
Montahut;Hydro;99.0;2013;;2.94;43.571
Montans;Solar;2.08547;2013;;1.8665;43.8502
Montarnaud;Solar;2.46644;2013;;3.6997;43.647
Montauban;Hydro;2.35;2013;;1.3638;44.0226
Montauban;Solar;10.79454;2013;;1.3638;44.0226
Montbazin;Wind;6.0;2013;;3.6717;43.5327
Montbray;Wind;10.0;2013;;-1.109;48.8826
Montbron;Solar;1.00209;2013;;0.504;45.6673
Montbrun;Hydro;2.25;2013;;1.9032;44.5114
Montbéliard;Solar;1.46929;2013;;6.7926;47.5152
Montcornet;Wind;10.85;2013;;4.0296;49.6887
Montdidier;Wind;8.0;2013;;2.5687;49.6478
Montech;Solar;3.09452;2013;;1.2374;43.9523
Montech;Biomass;7.6;2013;;1.2374;43.9523
Montendre;Solar;5.77316;2013;;-0.3875;45.2884
Montentoie;Solar;9.5;2013;;5.431;47.621
Montereau-Fault-Yonne;Biomass;6.3;2013;;2.9618;48.3901
Montereau-Fault-Yonne;Solar;1.08671;2013;;2.9618;48.3901
Montferrier;Hydro;1.585;2013;;1.7708;42.8658
Montjoyer;Wind;9.75;2013;;4.8779;44.4825
Montloué;Wind;12.6;2013;;4.0627;49.6675
Montmorillon;Solar;1.23061;2013;;0.8955;46.4264
Montoir-de-Bretagne;Solar;1.23978;2013;;-2.1456;47.3192
Montpellier;Solar;5.76331;2013;;3.8694;43.6132
Montpellier;Biomass;3.666;2013;;3.8694;43.6132
Montredon-Labessonnié;Hydro;1.45;2013;;2.3217;43.7241
Montreuil-Bellay;Solar;1.31922;2013;;-0.1249;47.1284
Montreuil-sur-Barse;Biomass;2.11;2013;;4.2856;48.2167
Montrozier;Solar;1.12087;2013;;2.7217;44.3956
Montsapey;Hydro;3.81;2013;;6.3673;45.5313
Montsinéry-Tonnegrande;Solar;7.0056;2013;;-52.5097;4.8095
Montélimar;Solar;5.02936;2013;;4.7489;44.5539
Montéléger;Solar;8.26136;2013;;4.9273;44.8556
Morainville;Solar;1.155;2013;;1.8339;48.3802
Morbecque;Solar;1.44435;2013;;2.5362;50.6767
Morcenx;Biomass;12.0;2013;;-0.8884;44.0411
Morhange;Solar;1.44583;2013;;6.6425;48.9277
Morsbach;Biomass;1.737;2013;;6.866;49.1679
Mortella;Solar;7.0;2013;;9.396;42.054
Morvillers-Saint-Saturnin;Wind;12.0;2013;;1.8154;49.7785
Moréac;Wind;16.0;2013;;-2.804;47.9329
Motz;Hydro;5.8;2013;;5.8448;45.9191
Mouans-Sartoux;Solar;1.60047;2013;;6.9645;43.6185
Mouchamps;Solar;1.08299;2013;;-1.0545;46.7876
Mougins;Solar;1.29918;2013;;7.0012;43.5959
Mouriez;Wind;12.0;2013;;1.9549;50.3471
Mouriès;Solar;1.00551;2013;;4.8908;43.701
Mourjou;Solar;1.23194;2013;;2.3166;44.697
Moussoulens;Solar;7.3;2013;;2.212;43.2787
Moustéru;Wind;16.2;2013;;-3.2349;48.5289
Mouthier-Haute-Pierre;Hydro;1.1;2013;;6.2758;47.0345
Moux Charmines;Hydro;28.0;2013;;5.554;46.277
Mouzeuil-Saint-Martin;Wind;8.9;2013;;-0.9842;46.4593
Moyencourt-lès-Poix;Wind;11.5;2013;;2.0408;49.7914
Moûtiers;Hydro;4.5;2013;;6.5373;45.4864
Mudaison;Solar;3.2405;2013;;4.0359;43.6403
Mulhouse;Solar;2.19836;2013;;7.3255;47.7492
Munster;Hydro;1.185;2013;;7.1421;48.045
Mur-de-Barrez;Solar;1.7034;2013;;2.6811;44.876
Murasson;Wind;13.8;2013;;2.7628;43.7609
Murat-sur-Vèbre;Wind;59.1;2013;;2.8709;43.6588
Murles;Solar;12.0;2013;;3.757;43.688
Mussig;Solar;2.50211;2013;;7.5184;48.2271
Muzillac;Wind;10.02;2013;;-2.4737;47.5552
Méautis;Wind;8.4;2013;;-1.2951;49.2812
Méligny-le-Grand;Wind;8.0;2013;;5.4936;48.6785
Méneslies;Wind;11.15;2013;;1.4945;50.0582
Ménil-la-Horgne;Wind;10.5;2013;;5.5318;48.7014
Ménéac;Wind;6.1;2013;;-2.4536;48.1316
Ménétréols-sous-Vatan;Wind;24.0;2013;;1.8356;47.0089
Méolans-Revel;Hydro;3.6;2013;;6.498;44.371
Mérignac;Solar;1.12675;2013;;-0.6821;44.8323
Méréville;Hydro;3.196;2013;;6.1369;48.5912
Mésanger;Solar;1.07784;2013;;-1.2256;47.4287
Mésanger;Wind;9.2;2013;;-1.2256;47.4287
Mézos;Solar;4.39252;2013;;-1.1335;44.0869
Mûriers;Solar;4.4;2013;;4.7007;44.3024
NOGENT;Nuclear;2620.0;2013;;3.5181;48.5171
Naives-Rosières;Wind;11.5;2013;;5.2285;48.8005
Nalliers;Wind;5.04;2013;;-1.0398;46.4658
Nancy;Hydro;1.5;2013;;6.176;48.6901
Nantes;Solar;2.79787;2013;;-1.548;47.2322
Nantes-en-Ratier;Hydro;7.0;2013;;5.8283;44.9279
Naours;Wind;10.0;2013;;2.2839;50.0446
Narbonne;Biomass;2.284;2013;;3.02;43.1651
Narbonne;Solar;13.18965;2013;;3.02;43.1651
Nelling;Wind;6.9;2013;;6.8646;48.9698
Nentilla;Hydro;97.0;2013;;2.213;42.772
Neuchâtel-Urtière;Wind;10.0;2013;;6.7307;47.3757
Neuilly-en-Donjon;Solar;1.34279;2013;;3.8847;46.3431
Neuville-sur-Ain;Hydro;2.63;2013;;5.3735;46.0912
Neuvy-Bouin;Wind;10.0;2013;;-0.4466;46.6812
Neuvy-en-Dunois;Wind;24.0;2013;;1.5358;48.2026
Neuvéglise;Solar;1.27428;2013;;2.9797;44.9311
Nibas;Wind;24.0;2013;;1.5884;50.0945
Nice;Solar;3.78755;2013;;7.2375;43.7123
Nice;Biomass;12.992;2013;;7.2375;43.7123
Niederlauterbach;Solar;1.12474;2013;;8.1051;48.9718
Niedervisse;Wind;12.0;2013;;6.5647;49.1625
Niort;Solar;2.64268;2013;;-0.4649;46.3286
Nixéville-Blercourt;Wind;12.0;2013;;5.262;49.1118
Nohant-en-Graçay;Wind;10.0;2013;;1.9122;47.1336
Nohic;Solar;4.55335;2013;;1.4385;43.8884
Noidans-le-Ferroux;Biomass;2.75;2013;;5.9482;47.5675
Noirefontaine;Hydro;4.9;2013;;6.7644;47.3471
Noirlieu;Wind;11.9;2013;;4.8048;48.9397
Noves;Solar;1.73558;2013;;4.8995;43.8588
Noyales;Wind;12.0;2013;;3.5393;49.9074
Noyelles-sous-Lens;Biomass;8.325;2013;;2.8754;50.4288
Noyers-Saint-Martin;Wind;12.0;2013;;2.266;49.5469
Nozay;Wind;12.0;2013;;4.0825;48.5
Nozeroy;Hydro;1.1;2013;;6.0355;46.7695
Nurlu;Biomass;1.021;2013;;3.0158;50.004
Nurlu;Wind;8.0;2013;;3.0158;50.004
Nyer;Hydro;5.658;2013;;2.2744;42.5014
Néoules;Solar;24.0245;2013;;6.0261;43.2946
Névian;Wind;17.85;2013;;2.8857;43.2038
Nîmes;Solar;11.26954;2013;;4.3476;43.8445
Nîmes;Biomass;11.382;2013;;4.3476;43.8445
ORAISON;Hydro;187.0;2013;;5.925;43.921
OTTMARSHEIM;Hydro;156.0;2013;;7.523;47.774
Ocana;Hydro;42.5;2013;;8.935;41.946
Oinville-Saint-Liphard;Wind;20.8;2013;;1.9242;48.2347
Olargues;Hydro;6.4;2013;;2.9176;43.5411
Olette;Hydro;10.86;2013;;2.2423;42.5962
Olivese;Hydro;1.4;2013;;9.069;41.8407
Ollières;Solar;20.80707;2013;;5.817;43.5105
Olmo 1;Solar;4.0;2013;;9.3923;42.0834
Oloron-Sainte-Marie;Hydro;5.7;2013;;-0.5869;43.156
Omey;Wind;4.2;2013;;4.5095;48.8527
Omissy;Wind;12.0;2013;;3.2984;49.881
Onesse-et-Laharie;Solar;4.47726;2013;;-1.0262;44.0722
Onet-le-Château;Solar;4.16604;2013;;2.5599;44.3827
Oo;Hydro;30.0;2013;;0.56;42.804
Opoul-Périllos;Wind;10.5;2013;;2.8579;42.88
Orange;Solar;5.48435;2013;;4.8104;44.129
Orange;Biomass;1.0;2013;;4.8104;44.129
Orcevaux;Wind;12.0;2013;;5.2703;47.7755
Oresmaux;Wind;12.0;2013;;2.2691;49.7662
Orgeix;Hydro;5.2;2013;;1.8767;42.6757
Orgnac-l'Aven;Solar;1.4248;2013;;4.4237;44.3095
Orgueil;Solar;8.5;2013;;1.419;43.895
Orlu;Hydro;88.8;2013;;1.912;42.689
Orléans;Biomass;12.0;2013;;1.9166;47.8825
Ornon;Hydro;1.3;2013;;5.9651;45.0405
Orthez;Hydro;1.6;2013;;-0.7801;43.494
Ortillon;Wind;35.0;2013;;4.2335;48.4931
Orvilliers-Saint-Julien;Wind;12.0;2013;;3.822;48.4388
Ouanne;Wind;18.0;2013;;3.4191;47.6577
Oupia;Wind;8.1;2013;;2.7752;43.2885
Ouzouer-le-Marché;Wind;10.0;2013;;1.5339;47.9028
Ozon;Solar;4.4;2013;;4.8225;45.1567
PALUEL;Nuclear;5320.0;2013;;0.6354;49.8582
PASSY;Hydro;104.0;2013;;6.6877;45.9203
PENLY;Nuclear;2660.0;2013;;1.2107;49.9764
PIED DE BORNE;Hydro;109.4;2013;;3.986;44.479
PORCHEVILLE;Oil;2290.0;2013;;1.7588;48.9692
POUGET;Hydro;446.9;2013;;2.769;44.06
PRAGNERES;Hydro;189.2;2013;;0.01;42.821
PROVENCE 5;Coal;595.0;2013;;5.4875;43.4672
Paizay-le-Tort;Wind;12.0;2013;;-0.1716;46.1674
Palasca;Solar;2.4782;2013;;9.0574;42.6303
Pamiers;Solar;2.30264;2013;;1.6159;43.1236
Pamproux;Wind;12.0;2013;;-0.043;46.4117
Pannecé;Wind;18.0;2013;;-1.2158;47.488
Pardies;Hydro;2.4;2013;;-0.5868;43.3667
Passy;Hydro;3.1;2013;;6.7398;45.954
Patay;Wind;12.0;2013;;1.6938;48.0509
Pau;Solar;4.44248;2013;;-0.3497;43.3202
Pauillac;Solar;9.0412;2013;;-0.7581;45.1987
Payns;Wind;20.0;2013;;3.9579;48.3756
Pellafol;Wind;3.0;2013;;5.8806;44.7824
Penin;Wind;24.0;2013;;2.4883;50.3306
Perchigat;Solar;12.0;2013;;-0.915;43.976
Perles-et-Castelet;Hydro;2.24;2013;;1.774;42.7179
Pernes-les-Fontaines;Solar;1.49932;2013;;5.0402;43.9962
Perpignan;Solar;25.62634;2013;;2.9333;42.7124
Perpignan Saint-Charles;Solar;8.8;2013;;2.8454;42.6828
Persac;Hydro;1.152;2013;;0.7312;46.3411
Pertain;Wind;12.3;2013;;2.8682;49.8059
Pertuis;Solar;1.34191;2013;;5.5208;43.6873
Pessac;Solar;5.71864;2013;;-0.676;44.7919
Petit-Bourg;Solar;1.2119;2013;;-61.6577;16.1715
Petit-Canal;Wind;9.515;2013;;-61.4498;16.3899
Petit-Canal;Solar;13.39734;2013;;-61.4498;16.3899
Petit-Palais-et-Cornemps;Solar;10.23009;2013;;-0.0563;44.9814
Peynier;Solar;1.00761;2013;;5.6254;43.4399
Peyrelevade;Wind;9.0;2013;;2.0374;45.7104
Peyrissac;Hydro;1.2;2013;;1.6949;45.506
Philondenx;Solar;2.76294;2013;;-0.43;43.5678
Pia;Solar;1.62849;2013;;2.9152;42.7492
Pierre Benite;Hydro;84.0;2013;;4.842;45.702
Pierrelatte;Biomass;12.0;2013;;4.6872;44.3609
Pierrelatte;Solar;9.15505;2013;;4.6872;44.3609
Pinet;Hydro;66.5;2013;;2.805;44.07
Pissos;Solar;8.54599;2013;;-0.7807;44.2957
Pithiviers;Biomass;4.97;2013;;2.249;48.1802
Pithiviers-le-Vieil;Wind;10.0;2013;;2.2062;48.1741
Plaisance-du-Touch;Solar;2.62341;2013;;1.2854;43.5572
Plateau De L'Arnet;Solar;11.5;2013;;3.429;43.504
Plessé;Solar;1.17782;2013;;-1.8902;47.5556
Plestan;Wind;14.0;2013;;-2.4415;48.4145
Pleugriffet;Wind;10.0;2013;;-2.6913;47.994
Pleyber-Christ;Wind;8.1;2013;;-3.8717;48.5106
Plogastel-Saint-Germain;Wind;9.2;2013;;-4.2636;47.9773
Plomodiern;Wind;12.0;2013;;-4.217;48.1809
Plouarzel;Wind;3.4;2013;;-4.7203;48.439
Plouasne;Hydro;5.0;2013;;-2.0078;48.3118
Ploudalmézeau;Wind;9.1;2013;;-4.6694;48.5372
Ploufragan;Solar;1.1005;2013;;-2.8084;48.4871
Plougras;Wind;6.0;2013;;-3.5645;48.4965
Plouguin;Wind;23.29;2013;;-4.5933;48.529
Plouigneau;Wind;10.0;2013;;-3.7035;48.5736
Plouisy;Wind;6.8;2013;;-3.1911;48.5841
Ploumoguer;Wind;5.7;2013;;-4.7157;48.3996
Plounévez-Quintin;Wind;2.0;2013;;-3.2406;48.2853
Plourin;Wind;3.4;2013;;-4.6843;48.5026
Plouvien;Wind;10.4;2013;;-4.4658;48.5397
Plouyé;Wind;3.0;2013;;-3.7343;48.3202
Plozévet;Wind;6.0;2013;;-4.4092;47.9828
Plumelin;Solar;1.25803;2013;;-2.8878;47.8823
Plumieux;Wind;8.6;2013;;-2.5909;48.1059
Pluzunet;Wind;6.0;2013;;-3.3706;48.6365
Pléchâtel;Wind;4.8;2013;;-1.7341;47.8751
Plélan-le-Grand;Wind;12.0;2013;;-2.0797;47.9966
Plémet;Solar;1.11259;2013;;-2.5861;48.186
Poey-d'Oloron;Hydro;1.236;2013;;-0.6633;43.2471
Poggio-di-Nazza;Solar;4.5;2013;;9.2929;42.0523
Poggio-di-Venaco;Solar;4.49;2013;;9.206;42.2689
Pogny;Wind;4.2;2013;;4.4952;48.8662
Poinson-lès-Nogent;Wind;24.3;2013;;5.3802;47.9915
Pointis-Inard;Hydro;4.55;2013;;0.7971;43.0837
Pointis-de-Rivière;Hydro;7.015;2013;;0.6255;43.0911
Poinville;Wind;35.75;2013;;1.9099;48.1746
Poiseul-la-Grange;Wind;10.0;2013;;4.7937;47.5775
Poitiers;Solar;1.84235;2013;;0.3594;46.5834
Pompogne;Solar;32.5236;2013;;0.1243;44.2002
Pont-Melvez;Wind;19.5;2013;;-3.2847;48.4743
Pont-Remy;Wind;12.0;2013;;1.9143;50.0622
Pont-Saint-Esprit;Solar;1.31208;2013;;4.6392;44.2524
Pont-de-Larn;Solar;2.17469;2013;;2.4094;43.5311
Pont-de-Larn;Hydro;1.573;2013;;2.4094;43.5311
Pont-de-Roide;Hydro;2.0;2013;;6.7628;47.3853
Pont-de-Salars;Wind;12.0;2013;;2.7097;44.2779
Pont-de-l'Isère;Solar;2.66728;2013;;4.8811;45.0156
Pont-sur-Sambre;Gas;412.0;2013;;3.8653;50.2308
Pontcharra;Hydro;13.335;2013;;6.0209;45.4199
Pontcharra;Solar;1.43215;2013;;6.0209;45.4199
Pontenx-les-Forges;Solar;1.49503;2013;;-1.0878;44.255
Pontenx-les-Forges;Biomass;2.5;2013;;-1.0878;44.255
Pontruet;Wind;12.0;2013;;3.2294;49.9149
Port-Mort;Hydro;6.09;2013;;1.41;49.1737
Port-Saint-Louis-du-Rhône;Solar;2.32439;2013;;4.8059;43.4161
Port-Saint-Louis-du-Rhône;Wind;21.25;2013;;4.8059;43.4161
Porta;Hydro;1.208;2013;;1.7918;42.5158
Portel-des-Corbières;Wind;11.775;2013;;2.9062;43.0519
Portet-sur-Garonne;Solar;2.12132;2013;;1.402;43.5289
Portillon (Le);Hydro;95.0;2013;;0.553;42.733
Poses;Hydro;9.999;2013;;1.2407;49.2998
Pouillé-les-Côteaux;Wind;9.693;2013;;-1.1741;47.4671
Poussan;Wind;6.0;2013;;3.6605;43.4943
Pouzauges;Solar;1.38035;2013;;-0.828;46.7813
Pouzols-Minervois;Solar;5.58263;2013;;2.8122;43.2849
Pouzols-Minervois;Wind;5.1;2013;;2.8122;43.2849
Pradelles-Cabardès;Wind;10.4;2013;;2.4389;43.4117
Pralognan-la-Vanoise;Hydro;4.932;2013;;6.7208;45.3501
Prats-de-Mollo-la-Preste;Hydro;1.16;2013;;2.4409;42.4199
Prayssac;Hydro;4.7;2013;;1.1878;44.514
Preuseville;Wind;13.5;2013;;1.5052;49.8803
Prouville;Wind;20.0;2013;;2.1299;50.1561
Prunelli-di-Fiumorbo;Solar;1.38793;2013;;9.3674;42.0072
Prunet;Solar;1.17117;2013;;2.4759;44.823
Puch-d'Agenais;Solar;1.4746;2013;;0.2599;44.3294
Puget-sur-Argens;Solar;2.26504;2013;;6.686;43.4715
Puimichel;Solar;8.31904;2013;;6.0254;43.979
Puits Castan;Solar;5.0;2013;;2.3605;43.3363
Puits De La Brasque;Solar;7.1;2013;;6.001;43.448
Pussay;Wind;9.2;2013;;1.9985;48.3506
Puy Bacot;Solar;12.0;2013;;-0.913;44.904
Puyloubier;Solar;6.5326;2013;;5.6778;43.5189
Périgny-la-Rose;Wind;14.0;2013;;3.6246;48.5539
Pérols;Solar;1.1108;2013;;3.9525;43.5614
Péré;Wind;8.4;2013;;-0.8163;46.0924
Queige;Hydro;14.7;2013;;6.4651;45.7077
Quesnoy-sur-Airaines;Wind;34.5;2013;;1.9961;49.9359
Quincieux;Solar;8.83539;2013;;4.7735;45.9141
Quincy;Wind;12.0;2013;;2.1559;47.1302
Quinquempoix;Wind;11.5;2013;;2.4189;49.5472
Quinson;Hydro;41.0;2013;;6.051;43.699
Quistinic;Hydro;1.15;2013;;-3.1271;47.9093
Quittebeuf;Wind;8.28;2013;;1.006;49.1072
RANCE;Wave and Tidal;240.0;2013;;-2.022;48.618
RANDENS;Hydro;124.2;2013;;6.3021;45.5436
REVIN;Hydro;808.0;2013;;4.625;49.906
RHINAU;Hydro;167.8;2013;;7.678;48.284
Rabastens;Hydro;1.325;2013;;1.7151;43.8484
Rabodanges;Hydro;6.6;2013;;-0.2895;48.8003
Radenac;Wind;8.2;2013;;-2.7136;47.9488
Radinghem;Wind;8.0;2013;;2.1176;50.547
Rageade;Wind;26.0;2013;;3.292;45.1481
Raival;Wind;12.0;2013;;5.2511;48.8863
Rambervillers;Biomass;6.176;2013;;6.6317;48.3462
Rambures;Wind;12.0;2013;;1.6954;49.9412
Rapale;Solar;10.27714;2013;;9.2963;42.6197
Raucourt-et-Flaba;Wind;12.0;2013;;4.9623;49.5896
Reffroy;Wind;12.3;2013;;5.4708;48.6263
Rehaincourt;Wind;6.8;2013;;6.4694;48.3614
Remilly-Wirquin;Wind;12.3;2013;;2.1755;50.67
Remire-Montjoly;Solar;5.03713;2013;;-52.2791;4.8842
Renneville;Wind;18.45;2013;;4.136;49.6513
Repaix;Wind;13.2;2013;;6.8308;48.6125
Rethonvillers;Wind;17.7;2013;;2.8559;49.7362
Retiers;Wind;11.5;2013;;-1.3436;47.9058
Retzwiller;Biomass;2.71;2013;;7.0884;47.6292
Revest-du-Bion;Solar;1.38737;2013;;5.5407;44.0938
Revin;Hydro;1.2;2013;;4.6924;49.9343
Rezé;Solar;1.00785;2013;;-1.5499;47.1766
Rhèges;Wind;12.3;2013;;3.9947;48.5322
Ribeauvillé;Biomass;1.413;2013;;7.2867;48.2063
Ribemont;Wind;10.0;2013;;3.4706;49.7885
Ribiers;Solar;1.89682;2013;;5.8444;44.2205
Rieupeyroux;Solar;2.32658;2013;;2.2293;44.3079
Rieux-de-Pelleport;Hydro;1.5;2013;;1.6007;43.0584
Rignac;Solar;1.26576;2013;;2.2929;44.4037
Rilhac-Lastours;Wind;2.0;2013;;1.1137;45.6586
Rimboval;Wind;10.0;2013;;1.9891;50.5151
Riols;Wind;3.6;2013;;2.7979;43.5016
Rion-des-Landes;Solar;31.74212;2013;;-0.9515;43.9388
Rivesaltes;Wind;9.0;2013;;2.8767;42.7789
Rivesaltes;Solar;2.44501;2013;;2.8767;42.7789
Rivesaltes;Solar;13.5;2013;;2.8853;42.7969
Rivière-Salée;Solar;1.38251;2013;;-60.9646;14.5259
Roanne;Hydro;2.4;2013;;4.0801;46.0451
Roc du Doun;Solar;12.0;2013;;2.0065;45.2088
Roche-Charles-la-Mayrand;Wind;16.3;2013;;3.02;45.4478
Rochefort;Solar;1.07973;2013;;-0.9724;45.9425
Rochefort-en-Valdaine;Wind;7.5;2013;;4.858;44.5122
Rodelle;Solar;1.06641;2013;;2.6222;44.4817
Rodez;Solar;1.05182;2013;;2.5667;44.3586
Rognac;Solar;1.55384;2013;;5.2311;43.497
Roinville;Wind;8.0;2013;;1.7561;48.4419
Roman;Wind;10.0;2013;;1.0452;48.8364
Romans-sur-Isère;Solar;1.1074;2013;;5.0381;45.0549
Romeyer;Hydro;1.2;2013;;5.4359;44.7926
Romilly-sur-Seine;Solar;7.63387;2013;;3.7216;48.5186
Ronchois;Wind;12.0;2013;;1.6232;49.724
Roquebillière;Hydro;2.008;2013;;7.2923;44.0273
Roquebrune-sur-Argens;Solar;2.64966;2013;;6.6518;43.4286
Roquefort;Solar;2.6631;2013;;0.5564;44.1763
Roquefort-des-Corbières;Solar;4.85419;2013;;2.9299;42.9921
Roquefort-des-Corbières;Wind;13.855;2013;;2.9299;42.9921
Roquetaillade;Wind;5.93;2013;;2.2072;42.9988
Roquevidal;Solar;1.03037;2013;;1.8607;43.6228
Rosières-en-Haye;Solar;78.933;2013;;5.9789;48.7867
Roubisque;Solar;4.5;2013;;-0.5627;45.2488
Roudouallec;Wind;5.6;2013;;-3.6944;48.1202
Rouillé;Solar;1.04771;2013;;0.0264;46.4203
Roumazières-Loubert;Solar;2.36039;2013;;0.5729;45.9102
Roumens;Wind;8.35;2013;;1.9361;43.4643
Roussas;Biomass;1.737;2013;;4.7873;44.4426
Roussas;Wind;21.0;2013;;4.7873;44.4426
Rousset;Solar;1.85941;2013;;5.625;43.4841
Rouy-le-Petit;Wind;16.4;2013;;2.9528;49.7656
Rouécourt;Wind;12.0;2013;;5.0753;48.3284
Roye;Wind;34.0;2013;;2.7927;49.6727
Rully;Wind;12.0;2013;;-0.7154;48.829
Rumont;Wind;24.6;2013;;5.2712;48.8297
Réclainville;Wind;6.0;2013;;1.7387;48.3381
Rémérangles;Wind;24.0;2013;;2.2911;49.4485
Réquista;Solar;1.56342;2013;;2.549;44.0319
Rézentières;Wind;12.0;2013;;3.1057;45.1344
SAINT CHAMAS;Hydro;159.0;2013;;5.073;43.527
SAINT ESTEVE;Hydro;141.0;2013;;5.385;43.692
SAINT GUILLERME;Hydro;116.0;2013;;6.079;45.031
SAINT PIERRE COGNET;Hydro;101.0;2013;;5.7866;44.9026
SAINT-PIERRE;Hydro;122.0;2013;;5.7866;44.9026
SAINTE CROIX;Hydro;132.3;2013;;6.134;43.737
SARRANS;Hydro;183.0;2013;;2.74;44.83
SAUSSAZ;Hydro;145.4;2013;;6.4726;45.2184
SERRE PONCON;Hydro;384.0;2013;;6.269;44.47
SISTERON;Hydro;214.0;2013;;5.921;44.21
ST ALBAN;Nuclear;2670.0;2013;;4.7554;45.4043
ST ETIENNE CANTALES;Hydro;106.5;2013;;2.219;44.945
ST LAURENT;Nuclear;1830.0;2013;;1.5783;47.7197
STRASBOURG;Hydro;148.0;2013;;7.797;48.526
SUPER BISSORTE;Hydro;742.3;2013;;6.576;45.202
Sachin;Wind;9.2;2013;;2.367;50.4926
Saffré;Wind;16.304;2013;;-1.5793;47.4913
Sail-sous-Couzan;Hydro;5.4;2013;;3.9618;45.7367
Sailly-lez-Cambrai;Solar;1.0206;2013;;3.1796;50.1987
Sains-lès-Pernes;Wind;6.4;2013;;2.3488;50.4789
Saint Cassien;Hydro;21.7;2013;;6.841;43.602
Saint Dalmas;Hydro;50.0;2013;;7.586;44.047
Saint Georges de Commiers;Hydro;60.0;2013;;5.687;45.006
Saint-Agrève;Wind;13.812;2013;;4.4131;45.0053
Saint-Alban;Wind;10.0;2013;;-2.5089;48.5547
Saint-Alban-des-Villards;Hydro;8.6;2013;;6.2362;45.3146
Saint-Allouestre;Wind;9.693;2013;;-2.7358;47.9081
Saint-Amadou;Solar;8.5566;2013;;1.7154;43.1109
Saint-Amand;Wind;13.8;2013;;-0.9484;49.0443
Saint-Amand-sur-Fion;Wind;17.9;2013;;4.6109;48.8267
Saint-Amans-Valtoret;Solar;1.69565;2013;;2.5008;43.5066
Saint-Amans-Valtoret;Hydro;1.094;2013;;2.5008;43.5066
Saint-Andiol;Solar;2.0985;2013;;4.9509;43.8306
Saint-André;Solar;2.33659;2013;;2.9811;42.553
Saint-André;Solar;7.14455;2013;;55.6421;-20.964
Saint-André-Farivillers;Wind;11.5;2013;;2.3001;49.5819
Saint-André-de-Cubzac;Solar;2.13209;2013;;-0.4356;44.9955
Saint-Antonin-du-Var;Solar;7.77024;2013;;6.2899;43.5116
Saint-Arnac;Wind;1.75;2013;;2.5354;42.777
Saint-Aubin;Biomass;1.095;2013;;3.5535;48.4831
Saint-Aubin-sur-Aire;Wind;23.7;2013;;5.4467;48.7149
Saint-Aunès;Solar;3.59832;2013;;3.9668;43.6352
Saint-Aventin;Hydro;1.43;2013;;0.5761;42.7599
Saint-Barnabé;Wind;12.0;2013;;-2.7018;48.1385
Saint-Barthélemy-d'Anjou;Biomass;2.97;2013;;-0.4858;47.4739
Saint-Barthélemy-de-Séchilienne;Hydro;11.499;2013;;5.8221;45.0397
Saint-Barthélemy-le-Plain;Hydro;3.0;2013;;4.7436;45.0453
Saint-Benoît;Solar;17.06567;2013;;55.6852;-21.0377
Saint-Bihy;Wind;3.2;2013;;-2.9682;48.3754
Saint-Christol-lès-Alès;Solar;1.91756;2013;;4.0761;44.0839
Saint-Christophe-du-Bois;Wind;8.0;2013;;-0.9652;47.0289
Saint-Christophe-en-Oisans;Hydro;4.405;2013;;6.2441;44.9289
Saint-Cirgues-en-Montagne;Wind;18.45;2013;;4.0883;44.7679
Saint-Clar;Solar;9.14009;2013;;0.7611;43.8924
Saint-Claude;Hydro;1.6;2013;;5.8761;46.4087
Saint-Claude;Solar;1.23656;2013;;-61.6901;16.0334
Saint-Clément;Wind;1.2;2013;;4.2607;44.9504
Saint-Congard;Wind;8.4;2013;;-2.3283;47.768
Saint-Coulitz;Wind;8.8;2013;;-4.0672;48.1822
Saint-Crépin;Wind;9.5;2013;;-0.7402;45.9968
Saint-Cyprien;Solar;4.0;2013;;2.972;42.6213
Saint-Cyprien;Solar;9.2203;2013;;4.23;45.5402
Saint-Cyr-en-Pail;Wind;10.25;2013;;-0.2521;48.4335
Saint-Cézaire-sur-Siagne;Hydro;9.6;2013;;6.8033;43.6597
Saint-Dalmas-le-Selvage;Hydro;2.56;2013;;6.841;44.2894
Saint-Denis;Solar;6.24747;2013;;55.4471;-20.933
Saint-Denis-des-Murs;Hydro;3.33;2013;;1.5295;45.7797
Saint-Etienne-du-Grès;Solar;4.4;2013;;4.7325;43.7833
Saint-Firmin;Hydro;4.08;2013;;6.0261;44.7936
Saint-Florent-le-Vieil;Solar;1.22079;2013;;-1.0032;47.3443
Saint-Flour;Hydro;3.6;2013;;3.5096;45.7102
Saint-Fons;Solar;2.11343;2013;;4.8504;45.7015
Saint-Fraigne;Wind;12.0;2013;;-0.0148;45.9569
Saint-Fraimbault-de-Prières;Biomass;1.415;2013;;-0.5744;48.3492
Saint-François;Wind;4.34;2013;;-61.2811;16.273
Saint-François;Solar;7.7834;2013;;-61.2811;16.273
Saint-Félix-Lauragais;Wind;10.02;2013;;1.9019;43.4508
Saint-Gaudens;Biomass;1.74;2013;;0.7268;43.1196
Saint-Gaudens;Solar;1.15319;2013;;0.7268;43.1196
Saint-Geniez-d'Olt;Hydro;1.544;2013;;2.9816;44.4734
Saint-Genou;Wind;12.0;2013;;1.3511;46.9111
Saint-Georges-des-Gardes;Wind;10.0;2013;;-0.7645;47.1673
Saint-Georges-les-Bains;Solar;2.52995;2013;;4.8099;44.8591
Saint-Georges-sur-Arnon;Wind;46.0;2013;;2.0734;46.9823
Saint-Geours-de-Maremne;Solar;1.78358;2013;;-1.2363;43.6868
Saint-Germain-de-Longue-Chaume;Wind;10.0;2013;;-0.3437;46.7188
Saint-Germainmont;Wind;20.5;2013;;4.135;49.521
Saint-Gervais-d'Auvergne;Hydro;8.8;2013;;2.8311;46.0192
Saint-Gervais-les-Bains;Hydro;12.0;2013;;6.741;45.857
Saint-Gervais-sous-Meymo;Hydro;1.09;2013;;3.6136;45.6707
Saint-Gildas;Wind;9.2;2013;;-3.0068;48.4222
Saint-Gilles;Solar;3.0006;2013;;4.4074;43.6579
Saint-Gilles-du-Mené;Biomass;1.6;2013;;-2.5508;48.2434
Saint-Girons;Hydro;4.79;2013;;1.1531;42.9756
Saint-Gor;Solar;34.73361;2013;;-0.2483;44.0625
Saint-Gouéno;Wind;5.95;2013;;-2.556;48.2799
Saint-Guen;Wind;9.2;2013;;-2.9132;48.2112
Saint-Herblain;Solar;1.24867;2013;;-1.6343;47.2247
Saint-Hilaire-Foissac;Hydro;1.0;2013;;2.1151;45.3235
Saint-Hilaire-de-Riez;Solar;1.10912;2013;;-1.9643;46.7436
Saint-Hilaire-du-Rosier;Solar;6.14989;2013;;5.2502;45.0905
Saint-Hilaire-la-Croix;Wind;1.2;2013;;3.0454;46.0401
Saint-Hilaire-la-Gravelle;Solar;1.10194;2013;;1.1824;47.9309
Saint-Jacques-de-Néhou;Wind;10.25;2013;;-1.616;49.4205
Saint-Jean de Libron A;Solar;6.0;2013;;3.277;43.362
Saint-Jean-Delnous;Solar;1.93942;2013;;2.4925;44.0411
Saint-Jean-Lachalm;Wind;18.6;2013;;3.7239;44.942
Saint-Jean-de-Folleville;Biomass;18.484;2013;;0.4998;49.5056
Saint-Jean-de-Maurienne;Hydro;3.9;2013;;6.3455;45.2719
Saint-Jean-de-Sauves;Solar;1.03735;2013;;0.0883;46.8395
Saint-Jean-de-Védas;Solar;2.55693;2013;;3.8318;43.5718
Saint-Jeoire;Hydro;3.673;2013;;6.4645;46.1387
Saint-Joseph;Solar;2.32084;2013;;55.6419;-21.306
Saint-Julien-Mont-Denis;Hydro;3.15;2013;;6.4175;45.2803
Saint-Julien-en-Born;Solar;2.1192;2013;;-1.2488;44.0914
Saint-Julien-le-Petit;Hydro;10.8;2013;;1.7051;45.8223
Saint-Just-en-Chaussée;Wind;6.9;2013;;2.4175;49.5114
Saint-Laurent-d'Aigouze;Solar;4.86698;2013;;4.2435;43.5706
Saint-Laurent-de-Cognac;Biomass;1.0;2013;;-0.3948;45.6956
Saint-Laurent-du-Maroni;Solar;2.49572;2013;;-53.978;4.9463
Saint-Laurent-du-Var;Hydro;2.8;2013;;7.1823;43.6865
Saint-Laurent-du-Var;Solar;1.52625;2013;;7.1823;43.6865
Saint-Laurent-en-Beaumon;Hydro;2.2;2013;;5.845;44.8849
Saint-Laurent-en-Royans;Hydro;2.4;2013;;5.3463;45.0098
Saint-Leu;Solar;1.86585;2013;;55.4839;-21.2727
Saint-Lizier;Hydro;3.107;2013;;1.1292;43.0002
Saint-Louis;Solar;11.43472;2013;;55.575;-21.2355
Saint-Loup-en-Champagne;Wind;26.0;2013;;4.2684;49.4505
Saint-Léger;Wind;10.25;2013;;2.8514;50.1839
Saint-Léger;Solar;10.74022;2013;;-0.5704;45.6166
Saint-Léger-lès-Domart;Wind;12.0;2013;;2.1407;50.056
Saint-Léonard-de-Noblat;Hydro;3.17;2013;;1.4954;45.841
Saint-Macoux;Wind;12.0;2013;;0.2263;46.1184
Saint-Malo-des-Trois-Fontaines;Wind;10.5;2013;;-2.469;48.0171
Saint-Mamet-la-Salvetat;Hydro;2.61;2013;;2.3054;44.8566
Saint-Mandé-sur-Brédoire;Wind;12.0;2013;;-0.2779;46.0371
Saint-Marc-Jaumegarde;Hydro;1.49;2013;;5.5224;43.5567
Saint-Marcel-lès-Valence;Solar;1.19855;2013;;4.9512;44.9724
Saint-Marcel-sur-Aude;Solar;12.04732;2013;;2.9242;43.2518
Saint-Martial;Solar;8.0;2013;;0.095;45.357
Saint-Martial-le-Vieux;Solar;4.23128;2013;;2.3083;45.6895
Saint-Martin-Lalande;Solar;6.80263;2013;;2.016;43.3015
Saint-Martin-de-Crau;Wind;7.2;2013;;4.8564;43.6121
Saint-Martin-de-Crau;Biomass;4.999;2013;;4.8564;43.6121
Saint-Martin-de-Crau;Solar;18.7102;2013;;4.8564;43.6121
Saint-Martin-de-Crau A;Solar;5.0;2013;;4.7705;43.6239
Saint-Martin-de-Valgalgues;Solar;1.13153;2013;;4.0744;44.166
Saint-Martin-des-Besaces;Wind;6.0;2013;;-0.8431;49.0087
Saint-Martin-du-Mont;Wind;12.0;2013;;4.8122;47.4152
Saint-Martin-du-Var;Hydro;8.1;2013;;7.1996;43.8162
Saint-Martin-lès-Melle;Wind;12.0;2013;;-0.1684;46.2261
Saint-Martin-sur-Oust;Wind;9.0;2013;;-2.2644;47.7627
Saint-Martory;Solar;1.48998;2013;;0.9364;43.1435
Saint-Maurice-Navacelles;Hydro;4.6;2013;;3.5064;43.8448
Saint-Maurice-de-Lignon;Hydro;12.3;2013;;4.1348;45.2201
Saint-Maurice-en-Valgodemard;Hydro;10.0;2013;;6.1126;44.7984
Saint-Maurice-sur-Adour;Hydro;1.49;2013;;-0.4666;43.7915
Saint-Maximin-la-Sainte-Baume;Solar;1.31957;2013;;5.8594;43.451
Saint-Michel;Solar;1.68546;2013;;0.4049;43.4315
Saint-Michel-Chef-Chef;Wind;10.25;2013;;-2.1272;47.1753
Saint-Médard-en-Jalles;Solar;1.19683;2013;;-0.7843;44.8833
Saint-Nazaire;Solar;1.22784;2013;;-2.2511;47.2802
Saint-Ouen;Biomass;13.4;2013;;2.3332;48.9097
Saint-Ouen-Domprot;Wind;10.0;2013;;4.3926;48.614
Saint-Paul;Solar;9.39874;2013;;55.6852;-21.0377
Saint-Paul-lez-Durance;Solar;6.2;2013;;5.751;43.675
Saint-Paul-lès-Romans;Solar;1.30184;2013;;5.1268;45.0584
Saint-Paul-sur-Ubaye;Hydro;3.61;2013;;6.8207;44.559
Saint-Paulien;Solar;1.55785;2013;;3.8215;45.1352
Saint-Philbert-de-Bouaine;Wind;16.4;2013;;-1.5071;46.9925
Saint-Philbert-de-Grand-Lieu;Solar;1.5517;2013;;-1.6569;47.0606
Saint-Pierre;Biomass;2.13;2013;;55.4909;-21.325
Saint-Pierre;Solar;35.47104;2013;;55.44;-21.3194
Saint-Pierre-Bénouville;Wind;12.0;2013;;0.9745;49.7377
Saint-Pierre-Chérignat;Hydro;6.4;2013;;1.6139;45.9602
Saint-Pierre-de-Maillé;Wind;24.0;2013;;0.8251;46.6777
Saint-Pierre-en-Faucigny;Hydro;6.0;2013;;6.3723;46.0634
Saint-Pierre-le-Viger;Wind;12.0;2013;;0.8502;49.8261
Saint-Pourçain-sur-Sioule;Hydro;1.825;2013;;3.306;46.3045
Saint-Priest;Solar;1.20315;2013;;4.949;45.7016
Saint-Priest-Taurion;Hydro;2.13;2013;;1.3959;45.8977
Saint-Privat-des-Vieux;Solar;1.15219;2013;;4.1305;44.1423
Saint-Pée-sur-Nivelle;Biomass;1.119;2013;;-1.5553;43.3561
Saint-Quentin;Wind;11.0;2013;;3.2779;49.8473
Saint-Quentin-Fallavier;Solar;1.7723;2013;;5.1087;45.6396
Saint-Quentin-du-Dropt;Solar;1.38658;2013;;0.5994;44.6813
Saint-Quentin-en-Mauges;Wind;16.0;2013;;-0.8988;47.2888
Saint-Quentin-la-Motte-Croix-au-;Wind;9.2;2013;;1.4527;50.0734
Saint-Quentin-sur-Isère;Biomass;1.8;2013;;5.548;45.2776
Saint-Rambert-d'Albon;Solar;1.35055;2013;;4.8317;45.289
Saint-Rémy-de-Maurienne;Hydro;1.348;2013;;6.2382;45.3876
Saint-Rémy-de-Provence;Solar;1.34343;2013;;4.8529;43.7832
Saint-Sauveur;Wind;22.9;2013;;0.6456;46.8024
Saint-Sauveur;Biomass;1.065;2013;;0.6456;46.8024
Saint-Sauveur;Solar;11.2;2013;;0.672;46.832
Saint-Sauveur-de-Ginestoux;Wind;6.68;2013;;3.6154;44.7019
Saint-Sauveur-de-Montagut;Hydro;1.496;2013;;4.5719;44.821
Saint-Saviol;Solar;1.01734;2013;;0.2312;46.1447
Saint-Servais;Wind;6.1;2013;;-3.374;48.3862
Saint-Servant;Wind;12.0;2013;;-2.5122;47.899
Saint-Sulpice;Hydro;1.586;2013;;1.6866;43.7594
Saint-Symphorien;Solar;23.97962;2013;;-0.0565;44.4609
Saint-Thibault-des-Vignes;Biomass;11.52;2013;;2.6766;48.8642
Saint-Thibéry;Solar;3.88792;2013;;3.4003;43.3922
Saint-Vincent-des-Landes;Wind;12.0;2013;;-1.5048;47.6556
Saint-Ébremond-de-Bonfossé;Wind;6.93;2013;;-1.1451;49.0725
Saint-Étienne;Solar;2.27441;2013;;4.3781;45.4302
Saint-Étienne-aux-Clos;Solar;1.13794;2013;;2.4492;45.5665
Saint-Étienne-de-Brillouet;Solar;1.53536;2013;;-1.0115;46.5138
Saint-Étienne-de-Cuines;Hydro;4.326;2013;;6.2602;45.3454
Saint-Étienne-de-Lugdarès;Wind;22.6;2013;;3.9732;44.6475
Saint-Étienne-du-Gué-de-l'Isle;Wind;8.8;2013;;-2.6433;48.0853
Saint-Étienne-du-Rouvray;Biomass;1.105;2013;;1.09;49.3814
Sainte Tulle I&II;Hydro;97.0;2013;;5.774;43.787
Sainte-Agnès;Hydro;2.875;2013;;5.96;45.2106
Sainte-Barbe;Solar;1.64045;2013;;6.3186;49.1632
Sainte-Dode;Solar;1.4495;2013;;0.3644;43.4163
Sainte-Foy-Tarentaise;Hydro;6.2;2013;;6.9414;45.5844
Sainte-Gemme-la-Plaine;Solar;1.59027;2013;;-1.111;46.4732
Sainte-Geneviève-sur-Arg;Solar;2.66073;2013;;2.7431;44.7999
Sainte-Geneviève-sur-Arg;Hydro;1.9;2013;;2.7431;44.7999
Sainte-Hermine;Solar;1.15772;2013;;-1.0723;46.5571
Sainte-Hélène;Solar;12.0;2013;;-0.915;44.91
Sainte-Livrade-sur-Lot;Solar;2.68527;2013;;0.6004;44.4059
Sainte-Marie;Wind;1.25;2013;;-2.0138;47.6934
Sainte-Marie;Solar;10.63756;2013;;55.5307;-20.947
Sainte-Marie;Solar;4.79411;2013;;-61.0178;14.7692
Sainte-Marie-Kerque;Biomass;1.5;2013;;2.1517;50.8923
Sainte-Marie-de-Cuines;Hydro;11.8;2013;;6.2942;45.3191
Sainte-Maxime;Solar;1.27827;2013;;6.611;43.3567
Sainte-Radegonde;Solar;1.5899;2013;;2.6329;44.3311
Sainte-Rose;Wind;6.256;2013;;55.7545;-21.192
Sainte-Rose;Solar;15.72967;2013;;55.7936;-21.1355
Sainte-Rose;Solar;1.8801;2013;;-61.7107;16.2938
Sainte-Sigolène;Solar;1.83155;2013;;4.2289;45.2468
Sainte-Suzanne;Solar;8.29833;2013;;55.5906;-20.9504
Sainte-Suzanne;Wind;10.175;2013;;55.5908;-20.9511
Sainte-Suzanne;Biomass;1.898;2013;;55.5908;-20.9511
Sainte-Thorette;Wind;20.0;2013;;2.2069;47.0778
Sainte-Tulle;Solar;5.35157;2013;;5.7728;43.783
Salaise-sur-Sanne;Biomass;14.6;2013;;4.8089;45.3441
Salaunes ;Solar;73.2;2013;;-0.871;44.913
Salignac;Hydro;88.0;2013;;5.979;44.138
Sallen;Wind;8.3;2013;;-0.8395;49.117
Salles;Solar;7.86327;2013;;-0.8836;44.5415
Salles-Curan;Wind;87.0;2013;;2.8299;44.1597
Salles-de-Villefagnan;Wind;20.7;2013;;0.1704;45.9595
Sallèles-Cabardès;Solar;6.85518;2013;;2.4174;43.3189
Salon-de-Provence;Solar;1.72674;2013;;5.068;43.6463
Sampzon;Hydro;1.12;2013;;4.3317;44.4131
Sans-Vallois;Solar;1.2196;2013;;6.1039;48.1612
Santa Lucia;Solar;4.4;2013;;9.3763;41.701
Santilly;Wind;10.0;2013;;1.8797;48.1488
Sarcelles;Biomass;4.4;2013;;2.3813;48.9903
Sarrazac;Solar;11.5;2013;;1.5795;45.0172
Sarreguemines;Solar;1.94781;2013;;7.0708;49.1093
Sartène;Solar;4.51178;2013;;8.9354;41.5715
Sassenage;Hydro;10.1;2013;;5.6513;45.2129
Satolas-et-Bonce;Biomass;1.064;2013;;5.1256;45.6828
Saucats;Solar;12.14377;2013;;-0.6314;44.6513
Saulce-sur-Rhône;Solar;4.4177;2013;;4.7909;44.7036
Saulces-Champenoises;Wind;20.0;2013;;4.5042;49.4465
Saulgond;Wind;6.0;2013;;0.7864;45.9561
Sault Brenaz;Hydro;45.0;2013;;5.418;45.846
Saulzet;Wind;1.2;2013;;3.2207;46.1373
Sausheim;Biomass;11.7;2013;;7.4003;47.7822
Saut Mortier;Hydro;44.0;2013;;5.642;46.372
Sautet (Le);Hydro;76.0;2013;;5.908;44.817
Sauto;Hydro;14.528;2013;;2.1488;42.5155
Sauveterre;Hydro;1.35;2013;;2.5599;43.4532
Sauveterre;Wind;12.0;2013;;2.5599;43.4532
Sauvian;Solar;7.56601;2013;;3.2539;43.2913
Saverdun;Solar;1.98349;2013;;1.5735;43.2269
Saverdun;Hydro;1.05;2013;;1.5735;43.2269
Savigné;Solar;1.03318;2013;;0.3311;46.1706
Savières;Wind;12.0;2013;;3.9341;48.4056
Saïx;Hydro;1.042;2013;;2.1714;43.5842
Scaër;Wind;11.5;2013;;-3.7304;48.0279
Schleithal;Solar;1.01791;2013;;8.0326;48.9869
Schmittviller;Solar;1.46074;2013;;7.1857;49.0074
Schweighouse-sur-Moder;Biomass;2.4;2013;;7.7393;48.8174
Selongey;Solar;1.14372;2013;;5.1995;47.5949
Semoine;Wind;12.0;2013;;4.0936;48.6737
Semoutiers-Montsaon;Solar;3.52497;2013;;5.0536;48.0639
Sepmeries;Wind;2.0;2013;;3.5606;50.2772
Septèmes-les-Vallons;Biomass;3.326;2013;;5.3809;43.3933
Seraumont;Wind;10.25;2013;;5.6079;48.4311
Serdinya;Hydro;4.447;2013;;2.3226;42.5763
Sermaises;Wind;12.0;2013;;2.2037;48.2985
Servas;Solar;1.21786;2013;;4.1925;44.1564
Servian;Solar;1.76611;2013;;3.3066;43.4143
Servières;Wind;2.0;2013;;3.4181;44.5858
Servières-le-Château;Hydro;4.6;2013;;2.0225;45.1402
Sessenheim;Solar;1.06702;2013;;7.9808;48.7949
Seyssel;Hydro;45.0;2013;;5.834;45.971
Seysses;Solar;4.54416;2013;;1.2874;43.4987
Siegen;Solar;1.48406;2013;;8.0398;48.9568
Signes;Solar;11.21057;2013;;5.8572;43.2776
Silfiac;Wind;3.4;2013;;-3.1732;48.1448
Sillars;Solar;1.37966;2013;;0.7861;46.4211
Sinnamary;Solar;4.032;2013;;-53.0078;5.2368
Sion-les-Mines;Wind;10.0;2013;;-1.581;47.7292
Sisteron;Solar;6.58144;2013;;5.9307;44.2008
Sixt-Fer-à-Cheval;Hydro;1.765;2013;;6.8123;46.054
Sochaux;Solar;9.4;2013;;0.865;46.15
Soignolles-en-Brie;Biomass;1.415;2013;;2.708;48.6452
Soleil Levant;Solar;5.0;2013;;-1.877;46.699
Soleol III;Solar;12.0;2013;;5.781;43.532
Solliès-Pont;Solar;1.10193;2013;;6.0636;43.1909
Somedat;Solar;4.5;2013;;4.973;43.587
Sonzay;Biomass;1.26;2013;;0.4774;47.5131
Sorbon;Wind;6.6;2013;;4.3721;49.5514
Sorgues;Solar;3.30091;2013;;4.8665;44.0151
Sortosville-en-Beaumont;Wind;8.25;2013;;-1.7098;49.4248
Soucia;Solar;3.3153;2013;;5.7583;46.5398
Soudan;Wind;10.25;2013;;-0.0955;46.4326
Soudan;Wind;6.9;2013;;-1.2902;47.7256
Souilly;Wind;18.0;2013;;5.3014;49.0294
Soulangy;Wind;10.0;2013;;-0.2143;48.9397
Soulce-Cernay;Hydro;1.1;2013;;6.8684;47.328
Soulom;Hydro;57.0;2013;;-0.069;42.953
Soulom;Hydro;1.05;2013;;-0.0718;42.9494
Sourdeval-les-Bois;Wind;2.0;2013;;-1.2768;48.912
Sourdon;Wind;13.8;2013;;2.4008;49.708
Sourdun;Solar;4.75796;2013;;3.3635;48.5364
Souvigné;Wind;8.0;2013;;-0.1704;46.3587
St-Georges;Solar;4.0;2013;;0.417;46.684
Stenay;Wind;11.5;2013;;5.1981;49.5005
Strasbourg;Biomass;19.446;2013;;7.7678;48.5716
Surbourg;Solar;1.03262;2013;;7.8361;48.91
Surgères;Solar;1.54508;2013;;-0.7539;46.1042
Sébrazac;Hydro;1.246;2013;;2.6555;44.537
Séglien;Wind;9.25;2013;;-3.1517;48.1024
Ségur;Wind;12.0;2013;;2.8443;44.2911
Ségur;Solar;1.32839;2013;;2.8443;44.2911
Sénas;Solar;1.35108;2013;;5.0869;43.7446
Sénergues;Solar;1.54792;2013;;2.4632;44.6052
Sénezergues;Solar;5.23356;2013;;2.4077;44.7187
Sénezergues;Hydro;1.08;2013;;2.4077;44.7187
Séry-lès-Mézières;Wind;8.0;2013;;3.4235;49.765
Sévignacq;Solar;4.57288;2013;;-0.2604;43.4517
Sévigny-Waleppe;Wind;18.45;2013;;4.0803;49.6174
Sévérac-le-Château;Solar;2.62482;2013;;3.0896;44.2996
TRICASTIN 1;Nuclear;3660.0;2013;;4.7311;44.3311
Talairan;Solar;1.20083;2013;;2.6697;43.0302
Talizat;Wind;18.0;2013;;3.0534;45.1231
Tallone;Solar;3.09403;2013;;9.4658;42.1844
Tallone;Biomass;1.688;2013;;9.4658;42.1844
Talmont-St-Hilaire;Solar;5.0;2013;;-1.646;46.505
Tangry;Wind;9.2;2013;;2.3595;50.4614
Tarascon;Solar;8.03488;2013;;4.6861;43.7941
Tarascon-sur-Ariège;Hydro;1.7;2013;;1.595;42.847
Tarbes;Solar;1.13639;2013;;0.0657;43.2348
Tarzy;Wind;8.0;2013;;4.2968;49.8762
Tauriac-de-Naucelle;Solar;1.07984;2013;;2.3235;44.1452
Teillet-Argenty;Hydro;5.5;2013;;2.517;46.2627
Tellancourt;Wind;16.0;2013;;5.6303;49.509
Tende;Hydro;3.2;2013;;7.5403;44.0996
Terminiers;Wind;21.4;2013;;1.7296;48.0896
Terre-de-Bas;Wind;1.925;2013;;-61.6334;15.8544
Tet (La);Hydro;41.1;2013;;2.267;42.553
Teting-sur-Nied;Biomass;2.72;2013;;6.6686;49.0533
Teyssode;Hydro;1.55;2013;;1.9251;43.6459
Thaas;Wind;12.0;2013;;3.8703;48.6395
Thicourt;Wind;8.0;2013;;6.5588;48.9916
Thiers;Solar;3.37036;2013;;3.5395;45.8623
Thorigné-sur-Dué;Solar;4.09874;2013;;0.5199;48.0291
Thory;Wind;13.8;2013;;2.4307;49.72
Thuès-Entre-Valls;Hydro;7.83;2013;;2.23;42.5036
Thérondels;Solar;1.06551;2013;;2.7418;44.8954
Thézan-des-Corbières;Solar;2.37967;2013;;2.7832;43.0893
Tiper 3;Solar;8.7;2013;;-0.173;46.986
Tirepied;Solar;4.81636;2013;;-1.273;48.7242
Togny-aux-Boeufs;Wind;22.0;2013;;4.4212;48.8473
Tombeboeuf;Solar;4.48497;2013;;0.4538;44.5181
Tonnay-Boutonne;Solar;1.07881;2013;;-0.7099;45.9751
Torreilles;Solar;12.19826;2013;;3.0084;42.7538
Touille;Hydro;1.925;2013;;0.9816;43.0833
Toulon;Solar;1.59104;2013;;5.9328;43.1365
Toulouse;Hydro;9.01;2013;;1.4323;43.596
Toulouse;Solar;13.59581;2013;;1.4323;43.596
Tournoisis;Wind;36.0;2013;;1.6034;48.0009
Tournus;Solar;2.64993;2013;;4.8991;46.5654
Tours-en-Savoie;Hydro;1.2;2013;;6.4618;45.6665
Tourville-la-Chapelle;Wind;11.0;2013;;1.259;49.9454
Touvois;Wind;8.2;2013;;-1.6792;46.9066
Touvois;Solar;1.29452;2013;;-1.6792;46.9066
Trans;Wind;6.9;2013;;-0.3087;48.2832
Trayes;Wind;10.0;2013;;-0.4826;46.669
Treilles;Wind;13.0;2013;;2.9436;42.9178
Treize-Vents;Solar;5.41264;2013;;-0.8457;46.9165
Trets;Solar;1.14191;2013;;5.7002;43.4378
Triouzoune;Hydro;22.0;2013;;2.349;45.347
Tritteling-Redlach;Solar;1.847;2013;;6.6167;49.0769
Truel;Hydro;27.0;2013;;2.769;44.06
Trébry;Wind;9.0;2013;;-2.5575;48.3456
Trécon;Wind;12.25;2013;;4.0876;48.8666
Trémeheuc;Wind;12.0;2013;;-1.6977;48.4387
Trémont;Wind;2.4;2013;;0.2735;48.5993
Tréviols;Solar;5.0;2013;;3.337;43.7007
Tuchan;Wind;11.7;2013;;2.7278;42.9063
Tuileries;Solar;8.0;2013;;4.0652;45.7366
Tuilieres;Hydro;32.0;2013;;0.633;44.845
Turcey;Wind;22.0;2013;;4.7193;47.4088
Téterchen;Wind;9.0;2013;;6.5678;49.2303
Ucciani;Solar;2.20694;2013;;8.9822;42.0475
Uglas;Solar;1.71416;2013;;0.4388;43.1406
Uhlwiller;Solar;1.20602;2013;;7.6745;48.8196
Ungersheim;Solar;2.13922;2013;;7.3054;47.8737
Usson;Hydro;9.3;2013;;3.3419;45.5271
Uzerche;Hydro;2.8;2013;;1.5653;45.4242
VILLARODIN;Hydro;357.0;2013;;6.721;45.213
VOGELGRUN;Hydro;140.5;2013;;7.5743;48.0201
VOUGLANS;Hydro;285.0;2013;;5.666;46.397
Vairé;Wind;4.2;2013;;-1.7499;46.6054
Val Beynette;Hydro;30.0;2013;;2.372;45.416
Valanjou;Wind;12.0;2013;;-0.6063;47.2181
Valbonne;Solar;1.60232;2013;;7.0294;43.6277
Valderoure;Solar;1.8821;2013;;6.7085;43.7939
Valence;Solar;2.16054;2013;;4.9131;44.9223
Valence-sur-Baïse;Solar;8.90466;2013;;0.3639;43.8682
Valenciennes;Solar;1.34;2013;;3.516;50.3591
Valensole;Solar;12.84783;2013;;5.9425;43.8382
Valentine;Hydro;8.2;2013;;0.7013;43.0886
Valhuon;Wind;4.0;2013;;2.384;50.434
Valloire;Hydro;1.88;2013;;6.4235;45.1232
Vallon du Roux;Solar;4.3;2013;;5.75;43.675
Vallon-Pont-d'Arc;Hydro;1.2;2013;;4.4055;44.4003
Vallérargues;Solar;4.8;2013;;4.3715;44.1122
Valonne;Wind;10.0;2013;;6.6686;47.3422
Vals-près-le-Puy;Solar;2.41679;2013;;3.8652;45.0229
Vanault-le-Châtel;Wind;8.5;2013;;4.7049;48.8658
Varages;Solar;11.8732;2013;;5.9451;43.5962
Varen;Solar;9.7921;2013;;1.8863;44.1579
Varennes-Jarcy;Biomass;2.7;2013;;2.5625;48.6807
Varilhes;Hydro;2.1;2013;;1.6343;43.0551
Vars;Solar;1.14956;2013;;0.1361;45.7563
Vatan;Wind;18.0;2013;;1.8255;47.0539
Vaudeville-le-Haut;Wind;8.2;2013;;5.5892;48.4492
Vaufrey;Hydro;6.3;2013;;6.9306;47.3405
Vaugris;Hydro;72.0;2013;;4.826;45.495
Vaulnaveys-le-Haut;Hydro;1.079;2013;;5.8407;45.1153
Vaumeilh;Solar;1.1204;2013;;5.9561;44.29
Vauvert;Solar;1.49843;2013;;4.3059;43.6257
Vauvillers;Wind;12.0;2013;;2.7066;49.8429
Vaux-Andigny;Wind;12.0;2013;;3.5233;50.0109
Vaux-le-Pénil;Biomass;14.302;2013;;2.6979;48.5244
Vaux-lès-Mouzon;Wind;7.269;2013;;5.1364;49.6033
Vedène;Biomass;4.64;2013;;4.9031;43.971
Vendargues;Solar;2.12071;2013;;3.963;43.6606
Vendres;Solar;5.0294;2013;;3.2271;43.2582
Venelles;Solar;1.23528;2013;;5.4906;43.5932
Venoy;Wind;12.0;2013;;3.6544;47.8052
Venthon;Hydro;9.0;2013;;6.418;45.6866
Venzolasca;Solar;4.76531;2013;;9.4933;42.5013
Verchin;Wind;18.2;2013;;2.1804;50.4939
Vergt;Solar;1.0424;2013;;0.7108;45.0417
Vern-sur-Seiche;Solar;1.39326;2013;;-1.6056;48.053
Verneuil 1;Solar;12.0;2013;;3.597;46.833
Verneuil 4;Solar;12.0;2013;;3.608;46.818
Vernoux-en-Gâtine;Wind;8.0;2013;;-0.5176;46.6225
Verny;Solar;2.03458;2013;;6.2027;49.0076
Verrières;Solar;1.50923;2013;;0.5971;46.4032
Vert-le-Grand;Biomass;21.166;2013;;2.3673;48.584
Vertou;Solar;1.28042;2013;;-1.4708;47.1602
Vesvres-sous-Chalancey;Wind;12.0;2013;;5.171;47.6958
Veules-les-Roses;Solar;5.029;2013;;0.7858;49.8664
Veulettes-sur-Mer;Wind;8.0;2013;;0.5876;49.8454
Vias;Solar;3.78074;2013;;3.3993;43.3132
Vic-en-Bigorre;Solar;1.45188;2013;;0.0561;43.3913
Vieilmoulin;Wind;12.0;2013;;4.6724;47.3141
Viguier Parking A;Solar;4.0;2013;;3.2651;43.3339
Vihiers;Solar;1.05859;2013;;-0.5597;47.1374
Villanière;Solar;5.10884;2013;;2.3509;43.3485
Villar-d'Arêne;Hydro;4.659;2013;;6.3639;45.0001
Villard-Bonnot;Hydro;1.875;2013;;5.889;45.2454
Villard-sur-Doron;Hydro;8.4;2013;;6.5193;45.7274
Villaroger;Hydro;9.3;2013;;6.8693;45.5574
Villefranche-de-Panat;Hydro;11.26;2013;;2.7161;44.0976
Villefranche-de-Rouergue;Hydro;1.134;2013;;2.0311;44.3499
Villefranche-sur-Cher;Solar;6.03336;2013;;1.7535;47.3059
Villefranche-sur-Saône;Biomass;7.823;2013;;4.7309;45.9872
Villejust;Biomass;3.605;2013;;2.2233;48.6784
Villelongue;Hydro;8.2;2013;;-0.0167;42.9429
Villemade;Hydro;1.468;2013;;1.2896;44.0797
Villemeux-sur-Eure;Wind;12.0;2013;;1.4578;48.6715
Villenave;Solar;5.95403;2013;;-0.822;43.9657
Villeneuve-de-Marsan;Solar;8.23082;2013;;-0.3043;43.9055
Villeneuve-lès-Avignon;Solar;2.19042;2013;;4.7943;43.9767
Villeneuve-lès-Béziers;Solar;2.25818;2013;;3.2903;43.3172
Villeneuve-sur-Lot;Solar;3.78137;2013;;0.742;44.4247
Villeraze;Solar;12.0;2013;;2.37;43.285
Villerest;Hydro;58.0;2013;;4.0494;45.9869
Villerest;Hydro;58.0;2013;;4.048;45.987
Villeret;Wind;4.0;2013;;3.1883;49.9495
Villers-Saint-Paul;Biomass;14.3;2013;;2.493;49.2885
Villers-le-Sec;Wind;6.0;2013;;3.5038;49.7713
Villeselve;Wind;10.25;2013;;3.1125;49.6861
Villeseneux;Wind;12.25;2013;;4.1431;48.8443
Villesèque-des-Corbières;Wind;55.31;2013;;2.8696;43.0193
Villeveyrac;Wind;14.0;2013;;3.5933;43.5006
Villotte-Saint-Seine;Wind;8.0;2013;;4.7126;47.4298
Vincly;Wind;9.9;2013;;2.1791;50.5561
Vinon;Hydro;32.5;2013;;5.827;43.725
Vinon-sur-Verdon;Solar;4.79643;2013;;5.8073;43.7219
Viriat;Biomass;1.39;2013;;5.2232;46.2508
Vis-en-Artois;Wind;2.4;2013;;2.9353;50.2457
Vitrolles;Solar;8.36897;2013;;5.2634;43.45
Vitry-la-Ville;Wind;34.0;2013;;4.4015;48.8249
Vitry-lès-Nogent;Wind;4.05;2013;;5.3435;47.9864
Viviers-sur-Chiers;Wind;20.8;2013;;5.6314;49.4655
Vix;Wind;10.0;2013;;-0.8573;46.3542
Viâpres-le-Petit;Wind;2.0;2013;;4.053;48.5816
Vogelgrun;Hydro;2.7;2013;;7.5852;48.0106
Vouarces;Wind;12.0;2013;;3.8911;48.5924
Voutezac;Hydro;2.82;2013;;1.4406;45.2928
Vouthon-Haut;Wind;10.25;2013;;5.6026;48.4742
Vron;Wind;17.2;2013;;1.7646;50.3162
Vyt-lès-Belvoir;Wind;10.0;2013;;6.6263;47.3487
Vèze;Hydro;1.241;2013;;2.9771;45.2787
Vézins-de-Lévézou;Solar;1.69776;2013;;2.9253;44.2675
Wancourt;Wind;2.0;2013;;2.8558;50.2557
Weinbourg;Solar;5.35889;2013;;7.4414;48.8718
Woelfling-lès-Sarreguemines;Wind;10.0;2013;;7.1844;49.0858
Xambes;Wind;13.8;2013;;0.1068;45.8242
Ychoux;Solar;9.0;2013;;-0.991;44.412
Ygos 1;Solar;12.0;2013;;-0.728;44.0348
Ygos-Saint-Saturnin;Solar;5.11175;2013;;-0.7206;43.9958
Yvignac-la-Tour;Wind;8.0;2013;;-2.1711;48.3493
Yvré-l'Évêque;Solar;1.20213;2013;;0.2813;48.0236
Yzeure;Solar;5.0;2013;;3.377;46.534
Zicavo;Hydro;3.4;2013;;9.167;41.8845
Zonza;Solar;3.53502;2013;;9.2666;41.7213
Échalot;Wind;16.0;2013;;4.8348;47.6073
Écly;Wind;10.0;2013;;4.287;49.5543
Éguilly-sous-Bois;Wind;12.5;2013;;4.538;48.1391
Éloyes;Hydro;1.005;2013;;6.62;48.093
Épehy;Wind;18.4;2013;;3.1329;50.0062
Épense;Wind;4.25;2013;;4.8313;48.9745
Épierre;Hydro;5.88;2013;;6.3254;45.4523
Épinal;Hydro;1.15;2013;;6.4795;48.163
Épizon;Wind;80.0;2013;;5.3222;48.3735
Érize-Saint-Dizier;Wind;11.5;2013;;5.2833;48.8107
Érize-la-Brûlée;Wind;10.0;2013;;5.2753;48.8467
Érize-la-Petite;Wind;12.0;2013;;5.2374;48.9145
Étalante;Wind;20.0;2013;;4.7664;47.6291
Étampes;Biomass;2.126;2013;;2.1378;48.4218
Éteignières;Biomass;1.48;2013;;4.4031;49.8907
Étréville;Biomass;1.063;2013;;0.6558;49.38
Évaux-les-Bains;Solar;1.75118;2013;;2.4987;46.1691
ARRIGHI;Oil;254.0;2014;;;
ASTON;Hydro;104.0;2014;;;
AVIGNON;Hydro;126.0;2014;;;
Ablaincourt-Pressoir;Wind;14.35;2014;;;
Ablainzevelle;Wind;10.0;2014;;;
Achiet-le-Grand;Wind;18.0;2014;;;
Adriers;Wind;10.0;2014;;;
Agde;Solar;1.15956;2014;;;
Agenville;Wind;6.0;2014;;;
Aghione;Solar;8.53314;2014;;;
Aghione 2;Solar;4.0;2014;;;
Aghione 3;Solar;12.0;2014;;;
Agos-Vidalos;Hydro;1.6;2014;;;
Aigaliers;Solar;10.9;2014;;;
Aigrefeuille-d'Aunis;Solar;2.18556;2014;;;
Aiguillon;Hydro;1.177;2014;;;
Aiguillon;Solar;2.57727;2014;;;
Airaines;Wind;12.0;2014;;;
Airan;Wind;8.0;2014;;;
Aire-sur-l'Adour;Solar;2.23527;2014;;;
Aix-en-Provence;Biomass;4.245;2014;;;
Aix-en-Provence;Solar;8.36119;2014;;;
Aizenay;Solar;1.36627;2014;;;
Ajaccio;Solar;2.20953;2014;;;
Albaret-le-Comtal;Hydro;11.68;2014;;;
Albas;Hydro;1.8;2014;;;
Albi;Solar;6.70448;2014;;;
Albias;Solar;2.41;2014;;;
Allaire;Wind;8.2;2014;;;
Allanche;Wind;24.0;2014;;;
Allemant;Biomass;1.26;2014;;;
Allement;Hydro;32.0;2014;;;
Allemond;Hydro;5.3;2014;;;
Allery;Wind;4.6;2014;;;
Allibaudières;Wind;35.0;2014;;;
Allondrelle-la-Malmaison;Wind;10.76;2014;;;
Allones 1;Solar;4.5;2014;;;
Allonnes;Wind;52.275;2014;;;
Alluyes;Wind;12.0;2014;;;
Ally;Wind;31.5;2014;;;
Alès;Solar;3.5015;2014;;;
Aléria;Solar;3.66198;2014;;;
Amanty;Wind;12.3;2014;;;
Amanvillers;Biomass;1.06;2014;;;
